Unnamed: 0,address,city,floor,id,latitude,longitude,price,rooms,sq,year
0,Podgorze Zabocie Stanisawa Klimeckiego,Krakow,2.0,23918.0,50.0492242,19.9703793,749000.0,3.0,74.05,2021.0
1,PragaPoudnie Grochowska,Warszawa,3.0,17828.0,52.2497745,21.1068857,240548.0,1.0,24.38,2021.0
2,Krowodrza Czarnowiejska,Krakow,2.0,22784.0,50.0669642,19.9200249,427000.0,2.0,37.0,1970.0
3,Grunwald,Poznan,2.0,4315.0,52.404212,16.882542,1290000.0,5.0,166.0,1935.0
4,Ochota Gotowy budynek Stan deweloperski Ostatnie mieszkanie,Warszawa,1.0,11770.0,52.212225,20.9726299,996000.0,5.0,105.0,2020.0
5,Nowa Huta Czyzyny ul Wonicow,Krakow,2.0,26071.0,50.0469432,19.997153435836697,414600.0,1.0,34.55,2022.0
6,Podgorze Paszow Koszykarska,Krakow,0.0,22569.0,50.0498929,19.9906026,750000.0,4.0,81.4,2021.0
7,Mokotow Pory,Warszawa,10.0,13308.0,52.1840585,21.044302,2890000.0,6.0,280.0,2003.0
8,Ursynow Wyzyny,Warszawa,3.0,11387.0,52.1402821,21.0563452,615000.0,4.0,63.4,1982.0
9,Bemowo,Warszawa,1.0,10904.0,52.2389738,20.9132881,429000.0,1.0,40.0,1999.0
10,rodmiecie,Warszawa,0.0,16251.0,52.2328098,21.019067,375000.0,1.0,29.0,1968.0
11,PragaPoudnie Gocaw,Warszawa,2.0,13355.0,52.2286331,21.1065722,520000.0,3.0,67.0,1989.0
12,Biaoeka,Warszawa,0.0,15740.0,52.3196649,21.0211773,400000.0,3.0,57.0,2020.0
13,Nowe Miasto Malta Florentyny Luboinskiej 5,Poznan,0.0,6081.0,52.3916079,16.99406261278815,421427.0,3.0,60.29,2019.0
14,Wola,Warszawa,0.0,12035.0,52.2362379,20.9547815,591771.83,2.0,52.27,2021.0
15,Grunwald wierzawska,Poznan,8.0,1085.0,52.4006632,16.91973259178088,547000.0,4.0,77.39,2020.0
16,Biaoeka,Warszawa,2.0,10118.0,52.3196649,21.0211773,489000.0,2.0,52.0,2005.0
17,Grunwald Gorczyn ul Ceglana,Poznan,1.0,3518.0,52.3709933,16.8631459,618636.0,3.0,66.52,2020.0
18,Krowodrza Stanisawa Konarskiego,Krakow,2.0,27706.0,50.0840413,19.97816046757792,280000.0,1.0,16.2,1930.0
19,PragaPoudnie,Warszawa,1.0,9813.0,52.2373961,21.0712578,393800.0,1.0,35.8,2021.0
20,Ursynow ul Nowoursynowska,Warszawa,0.0,10053.0,52.16658235,21.04068566034108,869000.0,3.0,67.4,2008.0
21,Ochota Stara Ochota,Warszawa,3.0,12716.0,52.21691,20.97827,950000.0,3.0,72.0,1960.0
22,Nowe Miasto Malta ul Katowicka,Poznan,3.0,5789.0,52.3973449,16.9619394,563905.0,4.0,77.78,2022.0
23,Bemowo ul ks Juliana Chrocickiego,Warszawa,4.0,9002.0,52.2319581,21.0067249,670000.0,3.0,65.1,2013.0
24,Stare Miasto Wilczak Wilczak 16 A,Poznan,1.0,6235.0,52.4300916,16.9514725830321,442700.0,3.0,58.25,2020.0
25,Jezyce,Poznan,4.0,4837.0,52.413045,16.9022122,496369.0,2.0,41.57,2020.0
26,Prsdnik Czerwony ul liczna,Krakow,1.0,20324.0,50.0469432,19.997153435836697,756707.4,4.0,82.43,2021.0
27,Stare Miasto,Krakow,0.0,25697.0,50.0590398,19.93716829792899,949000.0,2.0,84.8,1936.0
28,rodmiecie Mokotowska,Warszawa,2.0,7519.0,52.2215263,21.0185237,2256000.0,3.0,94.0,1890.0
29,Prsdnik Biay Henryka Pachonskiego,Krakow,6.0,22385.0,50.0949773,19.920405494289955,405900.0,2.0,41.0,2022.0
30,Debniki Ruczaj prof Michaa Bobrzynskiego,Krakow,4.0,30144.0,50.0206269,19.8981903,699000.0,2.0,60.0,2010.0
31,Grunwald Jeleniogorska 13,Poznan,0.0,5569.0,52.404212,16.882542,456711.0,3.0,66.19,2021.0
32,rodmiecie Grzybowska,Warszawa,10.0,7807.0,52.2357458,20.993720703559504,440000.0,2.0,39.0,1972.0
33,Podgorze Zabocie,Krakow,3.0,27693.0,50.0478769,19.961368688357496,530000.0,1.0,31.0,2016.0
34,Podgorze Rzemielnicza,Krakow,2.0,28526.0,50.0469432,19.997153435836697,529000.0,3.0,53.84,2021.0
35,Jezyce ul w Wawrzynca 11,Poznan,5.0,5073.0,52.4201252,16.8956979,360916.0,2.0,39.23,2022.0
36,PragaPonoc Zsbkowska,Warszawa,1.0,13408.0,52.2548127,21.0478273,840000.0,2.0,47.0,2019.0
37,rodmiecie ul Mokotowska,Warszawa,2.0,9207.0,52.2215263,21.0185237,1699000.0,2.0,65.55,2009.0
38,Stare Miasto Piasek obzowska,Krakow,1.0,20681.0,50.0713737,19.9280904,620000.0,2.0,43.0,1990.0
39,Wola Kopot,Warszawa,1.0,9194.0,52.2572165,20.9777793,865000.0,2.0,51.59,2020.0
40,PragaPoudnie Mlsdzka,Warszawa,4.0,15720.0,52.2319581,21.0067249,670000.0,2.0,50.0,2018.0
41,Podgorze Duchackie Kurdwanow por Halszki,Krakow,0.0,18497.0,50.00581295,19.94770943906044,159000.0,2.0,49.0,2000.0
42,Zwierzyniec Wola Justowska Jesionowa,Krakow,0.0,29381.0,50.067974,19.8748544,899000.0,3.0,74.44,2020.0
43,Stare Miasto pl Na Groblach,Krakow,0.0,26869.0,50.0561004,19.9320048,595000.0,1.0,31.24,2019.0
44,Stare Miasto Naramowice ul Czarnucha,Poznan,1.0,2011.0,52.4499763,16.9527562,507830.4,3.0,75.57,2020.0
45,Wola,Warszawa,1.0,6596.0,52.2362379,20.9547815,530000.0,1.0,37.0,2003.0
46,Podgorze Duchackie ul Walerego Sawka,Krakow,6.0,24758.0,50.0242313,19.959569,539000.0,3.0,57.81,2021.0
47,Mokotow,Warszawa,0.0,10527.0,52.1939874,21.0457809,458000.0,2.0,44.0,1974.0
48,Ochota Grojecka,Warszawa,4.0,12808.0,52.211874,20.977725,319000.0,1.0,23.0,1960.0
49,Nowe Miasto Malta ul Katowicka,Poznan,0.0,4954.0,52.3973449,16.9619394,430695.0,3.0,50.67,2022.0
50,Grzegorzki ul Fabryczna,Krakow,8.0,28842.0,50.058444,19.9702351,971904.0,3.0,75.93,2021.0
51,Wzgorza Krzesawickie ulGustawa Morcinka,Krakow,0.0,26701.0,50.1047809,20.0362743,270648.0,2.0,37.59,2022.0
52,Debniki KlinyZacisze bpa Albina Maysiaka,Krakow,1.0,23510.0,49.9988318,19.8938784,266500.0,1.0,31.59,2020.0
53,Wola Juliana Konstantego Ordona,Warszawa,1.0,14803.0,52.2247928,20.9525803,517329.0,2.0,45.24,2021.0
54,Biaoeka,Warszawa,1.0,15658.0,52.3196649,21.0211773,430336.0,1.0,33.62,2019.0
55,Nowa Huta Czyzyny,Krakow,6.0,26149.0,50.0816349,20.016490706002102,498000.0,2.0,49.08,2019.0
56,Krowodrza,Krakow,10.0,23192.0,50.07087985,19.91656311814478,455000.0,3.0,45.0,1976.0
57,Jezyce ul w Wawrzynca 11,Poznan,0.0,5090.0,52.4201252,16.8956979,474128.2,3.0,62.14,2022.0
58,Wola Mirow Jaktorowska,Warszawa,4.0,11641.0,52.2342783,20.978731,420000.0,1.0,26.8,2017.0
59,PragaPoudnie Gocaw,Warszawa,3.0,9610.0,52.2286331,21.1065722,486540.0,2.0,44.94,2022.0
60,Bronowice ul Bronowicka 5,Krakow,4.0,28296.0,50.0778251,19.90068098696576,1038636.0,3.0,88.02,2021.0
61,Grzegorzki ul Fabryczna,Krakow,5.0,28954.0,50.058444,19.9702351,533455.0,1.0,36.79,2021.0
62,BiezanowProkocim Zocieniowa,Krakow,0.0,19457.0,50.0181408,20.0508626,382301.0,2.0,52.37,2020.0
63,Nowe Miasto Malta ul Katowicka,Poznan,2.0,5745.0,52.3973449,16.9619394,417112.5,2.0,47.67,2022.0
64,Prsdnik Czerwony ul Celarowska,Krakow,2.0,20837.0,50.081864,19.9546492,349000.0,2.0,37.06,1980.0
65,Stare Miasto Centrum ul Ostrow Tumski,Poznan,3.0,77.0,52.4113371,16.9476211,445000.0,2.0,39.06,2021.0
66,Nowe Miasto Malta abpa Walentego Dymka,Poznan,2.0,4250.0,52.3938613,16.9910647,461004.0,3.0,60.4,2020.0
67,PragaPoudnie Saska Kepa,Warszawa,3.0,12598.0,52.23280325,21.054660077101246,670000.0,2.0,38.0,1938.0
68,Stare Miasto Starowilna,Krakow,3.0,25004.0,50.0469432,19.997153435836697,709000.0,2.0,53.4,1926.0
69,Nowe Miasto Kobyle Pole ul abp Walentego Dymka,Poznan,3.0,3733.0,52.4006632,16.91973259178088,468300.0,3.0,66.9,2022.0
70,Grzegorzki Dsbie Dsbska,Krakow,0.0,20454.0,50.064613,19.9820189,730000.0,3.0,73.81,2013.0
71,Podgorze Okolna,Krakow,4.0,21240.0,50.0164142,19.9837781,439000.0,3.0,48.2,1980.0
72,Wola Mirow Srebrna,Warszawa,9.0,15326.0,52.2270648,20.9879443,519000.0,2.0,35.5,1963.0
73,PragaPoudnie Saska Kepa Miedzynarodowa,Warszawa,1.0,18213.0,52.2333644,21.0678467,515000.0,2.0,37.5,1970.0
74,Biaoeka,Warszawa,2.0,15659.0,52.3196649,21.0211773,460000.0,3.0,65.0,2019.0
75,PragaPoudnie Grochowska,Warszawa,4.0,7850.0,52.2497745,21.1068857,480000.0,2.0,43.9,1970.0
76,Wilanow ul Adama Branickiego,Warszawa,0.0,15754.0,52.154572,21.0706211,1388000.0,3.0,110.8,2015.0
77,PragaPoudnie,Warszawa,9.0,16147.0,52.2373961,21.0712578,699000.0,2.0,55.2,2012.0
78,rodmiecie ul Grzybowska,Warszawa,6.0,17600.0,52.2357458,20.993720703559504,430000.0,2.0,28.0,1980.0
79,Wochy,Warszawa,4.0,11572.0,52.1861093,20.9484377,550000.0,3.0,49.0,1971.0
80,Jezyce,Poznan,1.0,1203.0,52.413045,16.9022122,289000.0,2.0,37.56,1949.0
81,Biaoeka Ksty Grodziskie,Warszawa,1.0,10910.0,52.3246245,21.0547602,393000.0,3.0,53.0,2021.0
82,Podgorze ul Koszykarska,Krakow,2.0,22169.0,50.0498929,19.9906026,543558.0,3.0,53.0,2021.0
83,PragaPoudnie Gocaw ul gen Tadeusza BoraKomorowskiego,Warszawa,1.0,6918.0,52.2319581,21.0067249,630000.0,2.0,43.89,2020.0
84,Nowe Miasto Rataje os Piastowskie,Poznan,10.0,804.0,52.3958333,17.2202778,348900.0,2.0,48.4,1977.0
85,Nowe Miasto Komandoria,Poznan,0.0,1788.0,52.4122222,16.9694444,499000.0,2.0,60.0,2000.0
86,Wilda Przemysowa,Poznan,1.0,250.0,52.392868,16.9194578,385000.0,2.0,59.1,1920.0
87,BiezanowProkocim Zocien,Krakow,4.0,21395.0,50.0225216,20.0481276,290829.0,2.0,37.77,2021.0
88,Nowa Huta Okulickiego,Krakow,1.0,21713.0,50.087129,19.9950474,580000.0,3.0,62.0,2014.0
89,Mokotow,Warszawa,7.0,12413.0,52.1939874,21.0457809,916860.0,3.0,65.0,2018.0
90,Biaoeka,Warszawa,2.0,11586.0,52.3196649,21.0211773,659000.0,4.0,75.3,2017.0
91,Stare Miasto Miodowa,Krakow,3.0,25196.0,50.05278,19.9447455,985000.0,3.0,53.0,1920.0
92,maopolskie,Krakow,3.0,18338.0,50.0619474,19.9368564,429000.0,2.0,46.69,2021.0
93,BiezanowProkocim Biezanow,Krakow,4.0,26721.0,50.0128958,20.0258584,372154.0,3.0,50.98,2021.0
94,Podgorze Duchackie Wola Duchacka,Krakow,5.0,22257.0,50.0146222,19.953758,546910.0,3.0,60.1,2021.0
95,Bronowice Stanczyka,Krakow,1.0,29033.0,50.0788285,19.8942504,302111.2,1.0,29.33,2021.0
96,Wilanow Sarmacka,Warszawa,1.0,6291.0,52.1656517,21.0767961,1250000.0,3.0,94.83,2007.0
97,Mistrzejowice,Krakow,1.0,27576.0,50.09742625,20.00960263225891,502374.0,4.0,66.12,2020.0
98,Ursynow,Warszawa,2.0,6443.0,52.141039,21.0323214,875000.0,3.0,72.0,2001.0
99,Zoliborz Rydygiera,Warszawa,1.0,11601.0,52.2590164,20.9919642,518100.0,1.0,31.4,2020.0
100,Mokotow Sielce Aleksandra Gierymskiego,Warszawa,1.0,8348.0,52.1988937,21.0358363,350000.0,2.0,33.18,1980.0
101,Prsdnik Biay Henryka Pachonskiego,Krakow,5.0,20534.0,50.0949773,19.920405494289955,418362.0,3.0,46.94,2021.0
102,Nowe Miasto Malta ul Katowicka,Poznan,3.0,5820.0,52.3973449,16.9619394,326705.0,2.0,34.39,2022.0
103,Ursynow Wyczoki ul Kobucka,Warszawa,3.0,6270.0,52.1599734,20.990916185264226,840000.0,3.0,66.0,2018.0
104,Ursus,Warszawa,2.0,13586.0,52.1960985,20.8828989,799990.0,3.0,77.75,2007.0
105,Nowe Miasto Malta ul Katowicka,Poznan,4.0,5079.0,52.3973449,16.9619394,308750.0,2.0,32.5,2022.0
106,Grunwald ul Artura Grottgera,Poznan,1.0,4000.0,52.4013241,16.8972699,499999.0,2.0,63.0,1935.0
107,Prsdnik Czerwony,Krakow,2.0,21409.0,50.0859419,19.96660060819073,510000.0,3.0,52.83,1980.0
108,Bielany,Warszawa,10.0,16061.0,52.2776126,20.9472054,539000.0,3.0,51.0,1972.0
109,Biaoeka ul Mikoaja Trsby,Warszawa,1.0,8399.0,52.2319581,21.0067249,401000.0,2.0,48.0,2020.0
110,agiewnikiBorek Faecki Zakopianska,Krakow,1.0,28507.0,50.0230861,19.9337391,619000.0,4.0,88.3,1911.0
111,Debniki Ruczaj Chmieleniec,Krakow,1.0,29709.0,50.0204807,19.8980137,529900.0,2.0,54.0,2007.0
112,PragaPoudnie Gocaw,Warszawa,9.0,16684.0,52.2286331,21.1065722,565000.0,3.0,65.0,1980.0
113,Jezyce Podolany,Poznan,3.0,632.0,52.456781,16.887939,289000.0,2.0,29.17,2020.0
114,Wola,Warszawa,6.0,16651.0,52.2362379,20.9547815,1930000.0,5.0,120.0,2020.0
115,Prsdnik Biay Jozefa Chemonskiego,Krakow,1.0,25490.0,50.0863097,19.9139884,440000.0,2.0,48.4,2008.0
116,BiezanowProkocim,Krakow,0.0,28245.0,50.01706235,20.022991856015395,498312.0,4.0,61.52,2021.0
117,Wilanow Piechoty anowej,Warszawa,1.0,9761.0,52.1728323,21.0851058,4150000.0,6.0,257.92,2020.0
118,Wola Czyste,Warszawa,1.0,12591.0,52.2200627,20.9652859,1169000.0,4.0,69.28,2018.0
119,Prsdnik Czerwony Reduta,Krakow,3.0,18405.0,50.1609054,19.743089127291668,680000.0,3.0,61.01,2017.0
120,Mistrzejowice ul Piasta Koodzieja,Krakow,6.0,28349.0,50.0986433,20.0132206,756284.0,4.0,87.94,2020.0
121,Ursynow ul Kobucka,Warszawa,1.0,12867.0,52.1599734,20.990916185264226,495000.0,2.0,42.9,2020.0
122,Stare Miasto,Krakow,4.0,22172.0,50.0590398,19.93716829792899,399000.0,1.0,24.5,1930.0
123,Targowek,Warszawa,9.0,11585.0,52.2751918,21.0580854,315000.0,1.0,30.5,1973.0
124,Nowa Huta Czyzyny Nowohucka 46,Krakow,1.0,30171.0,50.0558029,19.9993305,305370.0,1.0,26.1,2022.0
125,Podgorze Duchackie Wola Duchacka Henryka Kamienskiego,Krakow,7.0,20826.0,50.0288704,19.9568753,369000.0,2.0,38.86,2021.0
126,Wilda,Poznan,3.0,1124.0,52.3897748,16.9174381,435000.0,1.0,38.0,2020.0
127,PragaPonoc Zsbkowska,Warszawa,5.0,8609.0,52.2548127,21.0478273,1150000.0,3.0,79.0,2019.0
128,Ursus Krolow Polskich,Warszawa,0.0,13657.0,52.24932145,20.993173619961663,569000.0,3.0,63.3,2005.0
129,rodmiecie,Warszawa,10.0,13009.0,52.2328098,21.019067,9506700.0,5.0,271.6,2021.0
130,Targowek Turmoncka,Warszawa,0.0,12528.0,52.2968599,21.0366559,450000.0,3.0,47.5,1973.0
131,Krowodrza Stara Krowodrza,Krakow,2.0,21343.0,50.0788515,19.928968,785000.0,3.0,49.41,2019.0
132,Grunwald ul Budziszynska,Poznan,0.0,1764.0,52.3932361,16.8411942,503690.0,3.0,60.25,2021.0
133,Stare Miasto Pistkowo,Poznan,4.0,372.0,52.4006632,16.91973259178088,479000.0,3.0,67.3,1980.0
134,Mokotow ul Wygledowska,Warszawa,1.0,7746.0,52.1950111,20.9852946,1228000.0,3.0,78.6,2006.0
135,Nowe Miasto Malta ul Katowicka,Poznan,1.0,5694.0,52.3973449,16.9619394,470160.0,2.0,58.77,2022.0
136,Podgorze Duchackie Walerego Sawka,Krakow,6.0,24119.0,50.0242313,19.959569,419000.0,2.0,44.26,2020.0
137,Mokotow Aleja Lotnikow,Warszawa,4.0,8499.0,52.2161447,21.009288520108694,545000.0,2.0,43.0,1975.0
138,Stare Miasto Naramowice,Poznan,1.0,654.0,52.4496489,16.9494082,199000.0,1.0,25.0,2021.0
139,Podgorze Paszow,Krakow,1.0,24086.0,50.0345327,19.9754459,523000.0,3.0,65.38,2022.0
140,BiezanowProkocim Republiki Korczakowskiej,Krakow,6.0,24302.0,50.0163919,20.0008638,619000.0,3.0,62.5,2014.0
141,Podgorze Duchackie Wola Duchacka Adama Bochenka,Krakow,0.0,27521.0,50.0127186,19.9775244,319000.0,2.0,35.41,2021.0
142,Prsdnik Biay Gorka Narodowa abp Zygmunta Szczesnego Felinskiego,Krakow,4.0,27631.0,50.1003474,19.9684566,519000.0,2.0,55.67,2014.0
143,Mokotow Sadyba Jana III Sobieskiego,Warszawa,4.0,8180.0,52.2174171,21.0354469,955241.0,4.0,82.0,2021.0
144,Biaoeka Nowodwory,Warszawa,1.0,14817.0,52.35123,20.9444889,380000.0,2.0,38.7,2001.0
145,Prsdnik Biay Stefana Banacha,Krakow,1.0,20790.0,50.1015333,19.9640995,528381.0,3.0,57.9,2021.0
146,maopolskie,Krakow,9.0,23132.0,50.0619474,19.9368564,532350.0,3.0,68.25,2018.0
147,Jezyce ul w Wawrzynca 11,Poznan,5.0,5042.0,52.4201252,16.8956979,905951.2,4.0,93.59,2022.0
148,rodmiecie,Warszawa,10.0,10155.0,52.2328098,21.019067,1650000.0,4.0,160.0,2000.0
149,Krowodrza Kazimierza Wielkiego,Krakow,1.0,21223.0,50.073573,19.9193678,630015.0,3.0,48.5,2020.0
150,Bielany ul Josepha Conrada,Warszawa,2.0,16656.0,52.2725335,20.9296699562365,659000.0,4.0,68.7,1978.0
151,Nowa Huta Czyzyny ul Sotysowska,Krakow,3.0,22542.0,50.0605887,20.0240353,535200.0,3.0,55.75,2022.0
152,Nowa Huta Czyzyny,Krakow,2.0,27385.0,50.0816349,20.016490706002102,295000.0,2.0,27.0,2019.0
153,Mokotow ul Biaego Debu 1,Warszawa,2.0,7769.0,52.183924,21.042562,1469300.0,4.0,91.63,2021.0
154,Debniki Ruczaj dr Jana Piltza,Krakow,4.0,20156.0,50.0076191,19.8888826,352644.0,2.0,35.27,2021.0
155,Jezyce ul w Wawrzynca 11,Poznan,4.0,5045.0,52.4201252,16.8956979,551561.1,3.0,68.01,2022.0
156,PragaPonoc,Warszawa,2.0,16301.0,52.2648843,21.0273442,380000.0,1.0,30.0,1960.0
157,Podgorze Walerego Sawka,Krakow,1.0,24572.0,50.0242313,19.959569,749000.0,4.0,88.73,2020.0
158,Wochy Stare Wochy Czereniowa,Warszawa,2.0,16788.0,52.2319581,21.0067249,920000.0,3.0,81.0,2008.0
159,Stare Miasto Centrum,Poznan,3.0,1840.0,52.3601021,16.849834118146603,390000.0,1.0,40.0,2020.0
160,Podgorze ul dr Jana Piltza,Krakow,2.0,20700.0,50.0076191,19.8888826,660000.0,3.0,67.21,2021.0
161,Mokotow MARINA ul Rajska,Warszawa,1.0,6310.0,52.1923474,20.9893179,1404000.0,5.0,108.36,2007.0
162,Stare Miasto Naramowice ul Czarnucha,Poznan,0.0,1028.0,52.4499763,16.9527562,442105.2,4.0,64.92,2022.0
163,Debniki Ruczaj,Krakow,1.0,22470.0,50.0230156,19.9083637,994220.0,5.0,139.0,2022.0
164,Grzegorzki ul Fabryczna,Krakow,4.0,19901.0,50.058444,19.9702351,518665.0,1.0,35.77,2021.0
165,Ursynow Kobucka,Warszawa,3.0,13985.0,52.1599734,20.990916185264226,810000.0,3.0,69.78,2015.0
166,Targowek,Warszawa,5.0,14311.0,52.2751918,21.0580854,480000.0,2.0,50.7,1989.0
167,Nowa Huta Czyzyny os Zotej Jesieni,Krakow,2.0,20578.0,50.0921707,20.0255051,335000.0,1.0,38.0,1976.0
168,Wola Odolany,Warszawa,10.0,12407.0,52.2143854,20.9478636,959373.0,3.0,74.37,2021.0
169,Targowek Brodno Piotra Wysockiego,Warszawa,9.0,11312.0,52.2900258,21.0300729,315000.0,1.0,30.5,1974.0
170,PragaPoudnie ul ukowska 31,Warszawa,7.0,11032.0,52.23792595,21.09824680975332,649000.0,3.0,71.5,1987.0
171,Wola ul Marcina Kasprzaka,Warszawa,10.0,6814.0,52.227298450000006,20.953014207365527,360000.0,1.0,31.0,2021.0
172,Wawer Falenica,Warszawa,1.0,6642.0,52.1620483,21.2106772,629000.0,5.0,127.16,2020.0
173,Ochota,Warszawa,3.0,9397.0,52.212225,20.9726299,328500.0,2.0,24.0,1970.0
174,Grunwald azarz Marcina Kasprzaka,Poznan,0.0,1022.0,52.3886627,16.8908544,534900.0,3.0,60.99,1960.0
175,Mistrzejowice ul Piasta Koodzieja,Krakow,3.0,23342.0,50.0986433,20.0132206,409530.0,2.0,48.18,2022.0
176,Prsdnik Biay Dobrego Pasterza,Krakow,2.0,29450.0,50.08854595,19.95841912264688,610000.0,2.0,45.0,2019.0
177,Ochota ul Mstwicka,Warszawa,1.0,13436.0,52.2319581,21.0067249,1250000.0,4.0,94.4,2019.0
178,Nowa Huta Czyzyny Nowohucka 46,Krakow,2.0,30147.0,50.0558029,19.9993305,468966.0,3.0,49.89,2022.0
179,Prsdnik Czerwony Marka Eminowicza,Krakow,1.0,25162.0,50.0868616,19.9696987,1045000.0,4.0,200.0,1984.0
180,Wzgorza Krzesawickie ulGustawa Morcinka,Krakow,1.0,26744.0,50.1047809,20.0362743,436779.0,4.0,69.33,2022.0
181,Bielany Mociny Lekka,Warszawa,7.0,12535.0,52.2861129,20.9272115,745000.0,2.0,48.94,2020.0
182,Nowe Miasto Zawady Studzienna,Poznan,3.0,1750.0,52.4205511,16.9649872,489207.0,2.0,64.15,2021.0
183,BiezanowProkocim Biezanow Opalowa,Krakow,0.0,19094.0,50.021354,20.0519146,275855.0,2.0,44.5,2023.0
184,Grzegorzki ul Fabryczna,Krakow,4.0,28851.0,50.058444,19.9702351,1026066.0,3.0,83.42,2021.0
185,Wola ul Jozefa Bema,Warszawa,4.0,13910.0,52.2287779,20.959569831877182,849000.0,3.0,84.0,2003.0
186,Grunwald Gorczyn Jakuba Krauthofera,Poznan,0.0,4890.0,52.386959,16.890867471542784,265900.0,1.0,35.51,2021.0
187,Mokotow ul Jana III Sobieskiego,Warszawa,8.0,16426.0,52.1904607,21.0467831,393000.0,2.0,31.0,1980.0
188,Bielany ul Rudzka 5,Warszawa,5.0,7636.0,52.27851165,20.9734368,676300.0,2.0,52.89,2021.0
189,Bronowice ul Bronowicka,Krakow,3.0,20422.0,50.0778251,19.90068098696576,596646.0,2.0,46.98,2022.0
190,Wola,Warszawa,1.0,13539.0,52.2362379,20.9547815,898261.0,4.0,91.8,2021.0
191,Prsdnik Biay Azory ul Piotra Stachiewicza,Krakow,0.0,25603.0,50.0852974,19.9164193,315000.0,2.0,37.0,1968.0
192,Jezyce Winiary ul w Leonarda,Poznan,0.0,2747.0,52.4333637,16.911643474999998,390522.0,2.0,42.68,2020.0
193,agiewnikiBorek Faecki Borek Faecki Zywiecka,Krakow,4.0,20893.0,50.014117,19.9179187,399000.0,3.0,45.5,2020.0
194,Stare Miasto Centrum,Poznan,3.0,1331.0,52.3601021,16.849834118146603,1108000.0,5.0,187.8,1904.0
195,Prsdnik Czerwony ul Zenona Klemensiewicza,Krakow,1.0,26936.0,50.0814925,19.9500226,210000.0,1.0,13.3,2021.0
196,PragaPoudnie,Warszawa,4.0,6574.0,52.2373961,21.0712578,720000.0,3.0,69.0,1970.0
197,Wilanow Sarmacka,Warszawa,1.0,10078.0,52.1656517,21.0767961,1150000.0,3.0,93.2,2009.0
198,rodmiecie ul Grzybowska,Warszawa,6.0,13327.0,52.2357458,20.993720703559504,1299000.0,2.0,71.6,2004.0
199,Zoliborz,Warszawa,0.0,13678.0,52.2675944,20.9796975,1150000.0,3.0,70.85,2016.0
200,Podgorze Pana Tadeusza,Krakow,0.0,22388.0,50.0495539,19.9719694,466000.0,3.0,48.8,1970.0
201,Debniki Ruczaj,Krakow,1.0,27723.0,50.0230156,19.9083637,397992.0,2.0,43.26,2021.0
202,Jezyce Stanisawa Szczepanowskiego,Poznan,1.0,3942.0,52.4188529,16.8976818,538802.56,3.0,71.26,2021.0
203,Prsdnik Biay Szymona Zimorowicza,Krakow,4.0,21165.0,50.0950503,19.9284425,465000.0,3.0,49.02,2020.0
204,BiezanowProkocim Gornikow,Krakow,0.0,27099.0,50.021319,19.9953253,460000.0,2.0,46.3,2014.0
205,Nowa Huta Osiedle Urocze,Krakow,3.0,23702.0,50.0779373,20.0341341,350000.0,1.0,36.9,1956.0
206,Stare Miasto Winogrady,Poznan,0.0,124.0,52.4348647,16.9383531,455000.0,4.0,65.0,1980.0
207,Grzegorzki Olsza,Krakow,7.0,21886.0,50.0789773,19.9605879,330000.0,2.0,36.0,1980.0
208,Wilanow Miasteczo Wilanow ul Sarmacka,Warszawa,3.0,12870.0,52.1676858,21.0753396,1550000.0,4.0,119.48,2008.0
209,Wola,Warszawa,1.0,13511.0,52.2362379,20.9547815,1199000.0,3.0,70.0,2013.0
210,BiezanowProkocim ul Mariana Domagay,Krakow,4.0,28608.0,50.0219561,20.0509824,547470.0,4.0,71.1,2021.0
211,Podgorze Stare Podgorze ul Nadwilanska,Krakow,6.0,19851.0,50.0469432,19.997153435836697,2300000.0,3.0,86.6,2016.0
212,Bielany al Aleja Wadysawa Reymonta,Warszawa,10.0,6351.0,52.2743857,20.9376719,599000.0,3.0,56.0,1975.0
213,BiezanowProkocim Zocien Zocieniowa,Krakow,1.0,19689.0,50.0181408,20.0508626,611000.0,3.0,64.0,2018.0
214,rodmiecie rodmiecie Poudniowe ul Wilcza,Warszawa,4.0,11494.0,52.22519855,21.0179251538846,1159000.0,2.0,62.0,1936.0
215,Nowa Huta Czyzyny Sotysowska,Krakow,5.0,25836.0,50.0605887,20.0240353,495000.0,3.0,63.28,2021.0
216,Debniki gen Antoniego Jozefa Madalinskiego,Krakow,3.0,18901.0,50.0527679,19.9282413,1574937.0,2.0,63.0,2019.0
217,Grunwald Gorczyn ul Romana Dmowskiego,Poznan,3.0,5460.0,52.3817991,16.8916385,418900.0,2.0,59.79,2021.0
218,BiezanowProkocim Biezanow Agatowa,Krakow,4.0,20808.0,50.0225216,20.0481276,374344.0,2.0,51.0,2021.0
219,Wola Kolska 9,Warszawa,2.0,8869.0,52.2506604,20.9768777,538000.0,2.0,33.33,2019.0
220,Debniki ul Sandomierska,Krakow,3.0,19149.0,50.0517401,19.9311178,944760.0,3.0,78.73,2015.0
221,Targowek Trocka,Warszawa,2.0,14863.0,52.2753464,21.0554496,330000.0,1.0,36.0,1990.0
222,Stare Miasto Kazimierz,Krakow,1.0,19633.0,50.051855,19.9449466,1000000.0,3.0,78.7,1900.0
223,Mokotow Bokserska,Warszawa,5.0,13048.0,52.1696586,20.9970149,870000.0,3.0,90.0,2021.0
224,Wawer ul Leniczowka,Warszawa,0.0,8101.0,52.2319581,21.0067249,729000.0,4.0,69.51,2020.0
225,Centrum,Warszawa,4.0,11458.0,52.2311577,21.0100632,769000.0,2.0,46.1,1966.0
226,Debniki Stare Debniki ul Praska,Krakow,2.0,19166.0,50.0462081,19.9106477,479000.0,2.0,51.5,1950.0
227,Ursus ul Posag 7 Panien,Warszawa,1.0,9480.0,52.2059446,20.8852777,409000.0,3.0,49.5,2021.0
228,Targowek,Warszawa,1.0,18275.0,52.2751918,21.0580854,580000.0,4.0,60.0,1980.0
229,Nowa Huta Osiedle Spodzielcze,Krakow,2.0,22847.0,50.0777259,20.0272257,265000.0,2.0,32.6,1968.0
230,Podgorze Paszow Lipska,Krakow,1.0,23005.0,50.0454593,20.0002025,448810.0,3.0,48.52,2021.0
231,Prsdnik Czerwony MynskaBoczna,Krakow,4.0,28319.0,50.0831155,19.9737526,350000.0,2.0,37.0,1960.0
232,Mokotow ul Domaniewska 34B,Warszawa,7.0,9197.0,52.1839266,21.008725,721600.0,2.0,47.62,2022.0
233,rodmiecie Powile al 3 Maja,Warszawa,5.0,17086.0,52.2346393,21.0355145,744000.0,2.0,59.59,1931.0
234,Zwierzyniec Salwator Kasztelanska,Krakow,1.0,21540.0,50.0574103,19.9133138,451375.0,1.0,28.75,2021.0
235,Mokotow,Warszawa,1.0,14065.0,52.1939874,21.0457809,620000.0,2.0,38.6,2020.0
236,Nowa Huta Czyzyny,Krakow,2.0,30094.0,50.0816349,20.016490706002102,388080.0,2.0,39.6,2022.0
237,rodmiecie rodmiecie Poudniowe,Warszawa,5.0,11109.0,52.2222528,21.0156995,2400000.0,5.0,144.0,1912.0
238,Debniki KlinyZacisze Spacerowa,Krakow,0.0,26309.0,50.0050868,19.8770531,433862.0,3.0,58.63,2020.0
239,rodmiecie ul Franciszkanska,Warszawa,2.0,11894.0,52.2525583,21.0041604,1230000.0,2.0,59.0,2008.0
240,Bielany,Warszawa,0.0,7375.0,52.2776126,20.9472054,518700.0,2.0,39.9,2022.0
241,Podgorze Fredry,Krakow,2.0,28477.0,50.027406600000006,19.94132055000001,410000.0,2.0,34.6,2020.0
242,PragaPoudnie,Warszawa,1.0,12301.0,52.2373961,21.0712578,590016.0,3.0,52.68,2021.0
243,Debniki Ruczaj,Krakow,3.0,25108.0,50.0230156,19.9083637,850000.0,4.0,102.0,2005.0
244,Ochota ul Modawska,Warszawa,4.0,6764.0,52.1999952,20.9795466,680000.0,1.0,36.84,2018.0
245,Prsdnik Biay Gorka Narodowa Stefana Banacha,Krakow,2.0,20465.0,50.1015333,19.9640995,462181.28,3.0,59.82,2021.0
246,Prsdnik Czerwony Mynska Boczna,Krakow,0.0,29617.0,50.0453141,19.9246883,362100.0,2.0,37.0,1978.0
247,Zoliborz ul Kaliny Jedrusik,Warszawa,0.0,12323.0,52.2571792,20.9629941,915000.0,3.0,61.19,2015.0
248,Wola Ozarowska,Warszawa,4.0,14693.0,52.2465852,20.9546547,429000.0,1.0,31.0,1951.0
249,Mokotow,Warszawa,6.0,12933.0,52.1939874,21.0457809,585000.0,3.0,42.94,1970.0
250,BiezanowProkocim Erazma Jerzmanowskiego,Krakow,1.0,23861.0,50.0096842,20.0092457,590000.0,4.0,56.42,2015.0
251,Mokotow,Warszawa,0.0,17204.0,52.1939874,21.0457809,500000.0,3.0,56.3,1975.0
252,rodmiecie,Warszawa,2.0,7351.0,52.2328098,21.019067,899000.0,3.0,87.0,2000.0
253,Mokotow,Warszawa,2.0,13259.0,52.1939874,21.0457809,575000.0,2.0,44.61,1912.0
254,Wola,Warszawa,10.0,10067.0,52.2362379,20.9547815,619000.0,4.0,54.0,2020.0
255,Podgorze ul Stanisawa Klimeckiego,Krakow,5.0,24853.0,50.0492242,19.9703793,569000.0,3.0,54.36,2021.0
256,Mokotow Parkowa,Warszawa,2.0,10254.0,51.1754685,18.393681,3800000.0,3.0,136.0,2010.0
257,Debniki Ruczaj dr Jana Piltza,Krakow,2.0,26927.0,50.0076191,19.8888826,569000.0,3.0,50.7,2020.0
258,Nowa Huta Czyzyny ul Wonicow,Krakow,0.0,26133.0,50.0469432,19.997153435836697,706800.0,4.0,74.4,2022.0
259,BiezanowProkocim Wielicka 179,Krakow,1.0,27908.0,50.0102971,20.00857,400411.0,2.0,44.99,2021.0
260,Ochota,Warszawa,3.0,8785.0,52.212225,20.9726299,1210000.0,4.0,80.8,2015.0
261,rodmiecie ul Tytusa Chaubinskiego,Warszawa,4.0,9884.0,52.2253388,21.0035694,769000.0,2.0,46.1,1966.0
262,Biaoeka,Warszawa,4.0,11942.0,52.3196649,21.0211773,632899.0,4.0,72.29,2022.0
263,Prsdnik Biay Henryka Pachonskiego,Krakow,4.0,22397.0,50.0949773,19.920405494289955,478000.0,3.0,50.9,2021.0
264,Grzegorzki Grzegorzecka,Krakow,4.0,20581.0,50.0587885,19.9500605,419106.0,1.0,30.37,2020.0
265,Ursynow Kobucka,Warszawa,1.0,11041.0,52.1599734,20.990916185264226,775000.0,3.0,67.4,2019.0
266,Wola Juliana Konstantego Ordona,Warszawa,0.0,6787.0,52.2247928,20.9525803,486831.0,2.0,42.96,2021.0
267,Zoliborz,Warszawa,1.0,8352.0,52.2675944,20.9796975,580000.0,2.0,39.5,1955.0
268,Ursynow Nowoursynowska,Warszawa,5.0,14960.0,52.16658235,21.04068566034108,997000.0,3.0,79.0,2008.0
269,Podgorze Duchackie ul Walerego Sawka,Krakow,3.0,24770.0,50.0242313,19.959569,539000.0,3.0,57.1,2021.0
270,Ursynow,Warszawa,0.0,16873.0,52.141039,21.0323214,510000.0,2.0,44.0,1980.0
271,Stare Miasto Naramowice ul Karpia,Poznan,0.0,4921.0,52.4449107,16.9490349,477653.65,3.0,66.35,2020.0
272,Podgorze Duchackie ul Walerego Sawka,Krakow,0.0,24746.0,50.0242313,19.959569,449000.0,2.0,47.09,2021.0
273,Grunwald Gorczyn,Poznan,3.0,3760.0,52.3851547,16.880016,365000.0,2.0,46.91,2020.0
274,Mistrzejowice,Krakow,5.0,20248.0,50.09742625,20.00960263225891,380000.0,2.0,36.0,2020.0
275,Targowek,Warszawa,2.0,11393.0,52.2751918,21.0580854,430000.0,3.0,49.3,1975.0
276,Nowe Miasto Polanka 2,Poznan,1.0,4728.0,52.39975875,16.954659974486166,365256.0,2.0,41.04,2020.0
277,Podgorze Paszow,Krakow,1.0,22882.0,50.0345327,19.9754459,760000.0,5.0,79.6,2015.0
278,Prsdnik Czerwony ul Promienistych,Krakow,1.0,18494.0,50.0858369,19.9714303,629942.0,4.0,70.78,2021.0
279,Wola Panska,Warszawa,10.0,14071.0,52.230245,20.9872991,483000.0,2.0,37.2,1968.0
280,PragaPoudnie Saska Kepa,Warszawa,1.0,15371.0,52.23280325,21.054660077101246,899000.0,3.0,82.0,1980.0
281,Podgorze Kazimierza Siemienowicza,Krakow,2.0,27360.0,50.0380294,19.99559564674397,428832.0,2.0,44.67,2023.0
282,Podgorze Zabocie,Krakow,4.0,22426.0,50.0478769,19.961368688357496,649000.0,3.0,61.11,2021.0
283,wielkopolskie,Poznan,2.0,4281.0,52.4006632,16.91973259178088,406458.0,3.0,53.67,2020.0
284,Krowodrza ul Obopolna,Krakow,3.0,21191.0,50.0721983,19.9064101,585000.0,2.0,53.95,1960.0
285,Bemowo,Warszawa,6.0,15189.0,52.2389738,20.9132881,549000.0,3.0,63.67,1980.0
286,Stare Miasto Naramowice ul Karpia 27,Poznan,2.0,1122.0,52.444582100000005,16.95660163720169,471303.8,3.0,72.62,2020.0
287,Mokotow Sadyba Naeczowska,Warszawa,2.0,7987.0,52.1753544,21.0624219,685420.0,3.0,65.93,2022.0
288,Wilda Debiec,Poznan,3.0,1594.0,52.3711081,16.9163707,299000.0,2.0,48.0,1970.0
289,BiezanowProkocim Biezanow Henryka i Karola Czeczow,Krakow,1.0,19869.0,50.0205864,20.0569504,333660.3,3.0,63.0,2022.0
290,Stare Miasto Naramowice,Poznan,1.0,1279.0,52.4496489,16.9494082,289636.0,2.0,38.11,2022.0
291,Prsdnik Czerwony Dobrego Pasterza,Krakow,5.0,22330.0,50.0878647,19.9683977,649000.0,2.0,55.21,2020.0
292,Mistrzejowice ul Piasta Koodzieja,Krakow,2.0,23321.0,50.0986433,20.0132206,497420.0,4.0,65.45,2022.0
293,Prsdnik Biay Stefana Banacha,Krakow,5.0,20762.0,50.1015333,19.9640995,968688.0,4.0,104.16,2021.0
294,rodmiecie Stare Miasto,Warszawa,3.0,7522.0,52.2328098,21.019067,1700000.0,3.0,127.0,1956.0
295,BiezanowProkocim Wielicka 179,Krakow,1.0,27912.0,50.0102971,20.00857,435744.0,2.0,48.96,2021.0
296,Zwierzyniec Jesionowa,Krakow,2.0,24672.0,50.067974,19.8748544,1254555.0,4.0,92.93,2020.0
297,Grunwald Gorczyn Jakuba Krauthofera,Poznan,1.0,4885.0,52.386959,16.890867471542784,449400.0,2.0,61.52,2021.0
298,Debniki Skotniki ul Aleksandra Zelwerowicza,Krakow,0.0,27799.0,50.0179578,19.8790929,630000.0,4.0,75.0,2022.0
299,Biaoeka ul Leona Berensona,Warszawa,1.0,8308.0,52.3246245,21.0547602,319000.0,2.0,41.0,2020.0
300,Prsdnik Biay,Krakow,0.0,27635.0,50.1035684,19.9536031063012,442000.0,3.0,48.5,1990.0
301,Bielany Chomiczowka Brszownicza,Warszawa,5.0,16633.0,52.2319581,21.0067249,529000.0,2.0,47.0,1983.0
302,PragaPonoc Aleja Tysisclecia,Warszawa,4.0,12410.0,52.2542308,21.0528516,375000.0,3.0,47.0,2022.0
303,Grzegorzki Dsbie,Krakow,3.0,28587.0,50.0587985,19.9758208,495000.0,3.0,50.0,1964.0
304,Grunwald,Poznan,3.0,1782.0,52.404212,16.882542,510840.0,2.0,59.4,1905.0
305,Wzgorza Krzesawickie ulGustawa Morcinka,Krakow,0.0,26736.0,50.1047809,20.0362743,197028.0,1.0,25.26,2022.0
306,Podgorze Bagrowa,Krakow,3.0,29643.0,50.0361989,20.000282,1150000.0,4.0,86.0,2018.0
307,Prsdnik Czerwony Rakowice Wodkowica,Krakow,0.0,18796.0,50.0746426,19.9827054,480000.0,2.0,49.1,1962.0
308,Stare Miasto,Krakow,4.0,27451.0,50.0590398,19.93716829792899,777000.0,3.0,60.74,2008.0
309,rodmiecie,Warszawa,4.0,10936.0,52.2328098,21.019067,1384029.0,3.0,121.47,2012.0
310,PragaPoudnie Grochow Fundamentowa,Warszawa,3.0,17235.0,52.2386238,21.0818602,768000.0,3.0,63.1,2011.0
311,Wilanow,Warszawa,0.0,16884.0,52.1530829,21.1104411,1022750.0,3.0,82.0,2006.0
312,Ursynow Kobucka Central Park,Warszawa,4.0,12465.0,52.1599734,20.990916185264226,850000.0,3.0,71.0,2015.0
313,Mokotow ul Bluszczanska,Warszawa,1.0,15356.0,52.2090378,21.0634473,798098.0,3.0,73.22,2020.0
314,Podgorze Duchackie Wola Duchacka,Krakow,4.0,27088.0,50.0146222,19.953758,445993.87,2.0,43.91,2021.0
315,Bemowo,Warszawa,1.0,15331.0,52.2389738,20.9132881,600000.0,2.0,59.0,2009.0
316,Grunwald,Poznan,1.0,3986.0,52.404212,16.882542,507934.0,3.0,71.54,2021.0
317,Grunwald ul Bugarska 59,Poznan,10.0,593.0,52.3958369,16.8627283,535264.8,3.0,73.1,2020.0
318,Debniki Ruczaj Obozowa,Krakow,1.0,18940.0,50.0206194,19.9145455,510000.0,3.0,59.8,2010.0
319,Bronowice,Krakow,0.0,29686.0,50.0833247,19.869783648014888,568000.0,3.0,71.92,2022.0
320,Ochota,Warszawa,0.0,17383.0,52.212225,20.9726299,418000.0,1.0,32.0,1951.0
321,Wilda Dolna Wilda ul Stefana Czarnieckiego,Poznan,1.0,163.0,52.3941575,16.9162342,422280.0,1.0,46.0,2022.0
322,Nowa Huta Czyzyny ul Wonicow,Krakow,4.0,26101.0,50.0469432,19.997153435836697,586150.0,3.0,61.7,2022.0
323,Ursus Gierdziejewskiego,Warszawa,1.0,12672.0,52.1993842,20.8787826,478000.0,3.0,61.95,2022.0
324,Mistrzejowice os Piastow,Krakow,1.0,19509.0,50.1012069,20.017364300393496,699000.0,4.0,72.31,2020.0
325,Stare Miasto Naramowice,Poznan,1.0,272.0,52.4496489,16.9494082,231907.0,1.0,26.81,2022.0
326,Prsdnik Czerwony ul Zenona Klemensiewicza,Krakow,0.0,26289.0,50.0814925,19.9500226,226100.0,1.0,15.74,2021.0
327,Mistrzejowice ul Piasta Koodzieja,Krakow,0.0,23270.0,50.0986433,20.0132206,398320.0,2.0,49.79,2022.0
328,Mokotow Siekierki ul Bluszczanska,Warszawa,2.0,10395.0,52.2090378,21.0634473,530000.0,2.0,44.17,2009.0
329,Krowodrza,Krakow,2.0,19238.0,50.07087985,19.91656311814478,1050000.0,4.0,81.0,1939.0
330,rodmiecie ul Solec,Warszawa,3.0,7071.0,52.2337064,21.0281295,2600000.0,4.0,130.0,2017.0
331,Biaoeka ul Ksty Grodziskie,Warszawa,2.0,12303.0,52.3246245,21.0547602,389649.0,3.0,53.56,2021.0
332,Wilanow Urodzajna,Warszawa,1.0,6436.0,52.1692344,21.0789978,2800000.0,4.0,178.8,2005.0
333,Grzegorzki Stanisawa Lema,Krakow,1.0,27612.0,50.06772015,19.99154900943178,623000.0,3.0,63.28,2021.0
334,Nowa Huta Czyzyny ul Wonicow,Krakow,1.0,26123.0,50.0469432,19.997153435836697,459700.0,2.0,45.97,2022.0
335,Nowa Huta Czyzyny Nowohucka 46,Krakow,2.0,30105.0,50.0558029,19.9993305,553755.0,3.0,63.65,2022.0
336,Wola,Warszawa,0.0,14903.0,52.2362379,20.9547815,521367.0,2.0,47.45,2021.0
337,Biaoeka Kobiaka Rossiniego,Warszawa,0.0,6950.0,52.3434224,21.0517575,350000.0,2.0,39.07,2014.0
338,rodmiecie,Warszawa,3.0,7967.0,52.2328098,21.019067,1390000.0,4.0,101.0,1965.0
339,rodmiecie,Warszawa,10.0,14034.0,52.2328098,21.019067,624987.0,2.0,44.0,1970.0
340,Ochota,Warszawa,4.0,11860.0,52.212225,20.9726299,319000.0,1.0,23.0,1967.0
341,Prsdnik Czerwony,Krakow,0.0,29326.0,50.0859419,19.96660060819073,570250.0,4.0,92.03,2020.0
342,Ursynow Hawajska,Warszawa,7.0,11449.0,52.1502252,21.0408109,539000.0,2.0,49.0,1982.0
343,Nowe Miasto Malta ul Katowicka,Poznan,4.0,4865.0,52.3973449,16.9619394,689100.0,4.0,91.88,2022.0
344,Ursynow,Warszawa,2.0,7431.0,52.141039,21.0323214,890000.0,4.0,85.0,1978.0
345,Wola,Warszawa,2.0,14104.0,52.2362379,20.9547815,450000.0,1.0,42.0,1963.0
346,PragaPoudnie Gocaw Tadeusza Rechniewskiego,Warszawa,0.0,11797.0,52.225504,21.1034406,460000.0,2.0,46.0,1990.0
347,Wilda Dolna Wilda ul Stefana Czarnieckiego,Poznan,5.0,2300.0,52.3941575,16.9162342,737422.2,3.0,73.89,2022.0
348,Wilanow,Warszawa,0.0,12409.0,52.1530829,21.1104411,449000.0,3.0,59.0,2022.0
349,PragaPoudnie ul Osiecka 57,Warszawa,1.0,15537.0,52.24078885,21.106142157396025,639999.0,3.0,66.16,2020.0
350,Nowe Miasto Malta ul Katowicka,Poznan,1.0,5680.0,52.3973449,16.9619394,913220.0,6.0,130.46,2022.0
351,Biaoeka Vincenza Belliniego,Warszawa,2.0,11431.0,52.3449263,21.0492064,399000.0,2.0,32.0,2018.0
352,Zwierzyniec Piotra Borowego,Krakow,2.0,26943.0,50.0469432,19.997153435836697,535000.0,1.0,53.0,2000.0
353,Stare Miasto Naramowice ul Karpia,Poznan,3.0,2617.0,52.4449107,16.9490349,435800.5,4.0,68.63,2020.0
354,BiezanowProkocim Malachitowa,Krakow,1.0,20865.0,50.0190594,20.0536229,333500.0,3.0,63.0,2022.0
355,Debniki Ruczaj Chmieleniec,Krakow,2.0,24965.0,50.0204807,19.8980137,425000.0,2.0,48.4,2006.0
356,Mistrzejowice ul Piasta Koodzieja,Krakow,9.0,18345.0,50.0986433,20.0132206,431910.0,3.0,47.99,2020.0
357,Nowa Huta Czyzyny ul Centralna,Krakow,1.0,21823.0,50.0635686,20.0037147,606606.73,4.0,83.1,2022.0
358,Bemowo ul Kluczborska,Warszawa,0.0,7656.0,52.2429166,20.9226691,660000.0,2.0,58.7,2002.0
359,Targowek,Warszawa,9.0,17193.0,52.2751918,21.0580854,600000.0,4.0,70.5,1980.0
360,Podgorze Przewoz Przewoz,Krakow,1.0,20381.0,50.0435196,20.0712999,460000.0,2.0,38.0,2015.0
361,rodmiecie,Warszawa,2.0,18014.0,52.2328098,21.019067,475000.0,2.0,35.0,1952.0
362,maopolskie,Krakow,4.0,24043.0,50.0619474,19.9368564,529000.0,3.0,62.45,2021.0
363,Wola,Warszawa,0.0,12726.0,52.2362379,20.9547815,550000.0,3.0,54.0,1964.0
364,Stare Miasto Naramowice,Poznan,4.0,990.0,52.4496489,16.9494082,295353.0,2.0,38.11,2022.0
365,Wola,Warszawa,3.0,6571.0,52.2362379,20.9547815,435000.0,2.0,38.0,1977.0
366,Nowe Miasto Malta,Poznan,1.0,489.0,52.40739345,16.979467067544743,250400.0,1.0,31.3,2021.0
367,Grzegorzki Stanisawa Lema,Krakow,3.0,29788.0,50.06772015,19.99154900943178,844658.0,4.0,78.94,2021.0
368,Bemowo ul Drogomilska,Warszawa,0.0,18216.0,52.2302434,20.9137087,575000.0,3.0,67.6,1980.0
369,Biaoeka Belliniego,Warszawa,1.0,12065.0,52.3449263,21.0492064,375000.0,2.0,37.0,2017.0
370,PragaPonoc ul Grajewska,Warszawa,3.0,9961.0,52.2607383,21.0600114,800000.0,3.0,74.0,1927.0
371,rodmiecie Zygmunta Sominskiego,Warszawa,0.0,15939.0,52.25477,20.9851946,709302.0,3.0,62.74,2021.0
372,Grunwald Gorczyn ul Ceglana,Poznan,1.0,3522.0,52.3709933,16.8631459,679432.0,3.0,65.33,2020.0
373,Nowe Miasto Rataje,Poznan,3.0,1271.0,52.3901295,16.9535909,309000.0,2.0,36.4,2021.0
374,Mistrzejowice os Mistrzejowice,Krakow,8.0,20918.0,50.09497745,19.996209027640845,576000.0,4.0,71.59,1991.0
375,Jezyce Stanisawa Szczepanowskiego,Poznan,0.0,2902.0,52.4188529,16.8976818,402324.0,2.0,52.33,2021.0
376,Debniki KlinyZacisze,Krakow,2.0,20288.0,50.00969645000001,19.90590180362617,630000.0,3.0,64.0,2020.0
377,Prsdnik Biay Stefana Banacha,Krakow,4.0,24532.0,50.1015333,19.9640995,968502.0,5.0,104.14,2020.0
378,Grzegorzki Topolowa,Krakow,1.0,27641.0,50.0663586,19.9566114,1100000.0,3.0,79.0,1920.0
379,PragaPoudnie ul Wojciecha Chrzanowskiego,Warszawa,0.0,10069.0,52.252529,21.0762713,525000.0,2.0,44.26,2016.0
380,Targowek,Warszawa,4.0,7268.0,52.2751918,21.0580854,352500.0,2.0,37.5,1968.0
381,PragaPoudnie ul Minska 25c,Warszawa,2.0,9521.0,52.2498237,21.0589502,375000.0,1.0,25.0,2014.0
382,Prsdnik Biay Zielinska,Krakow,0.0,20074.0,50.0960701,19.9318655,442000.0,3.0,48.0,1980.0
383,Mokotow ul Augustowka,Warszawa,2.0,17803.0,52.18626545,21.072322474777074,325000.0,1.0,29.0,2003.0
384,Nowa Huta Os Soneczne,Krakow,1.0,21647.0,50.0771546,20.0393941,255000.0,1.0,20.37,1970.0
385,Podgorze Zabocie,Krakow,4.0,26856.0,50.0478769,19.961368688357496,429000.0,2.0,34.73,2021.0
386,Mistrzejowice Piasta Koodzieja,Krakow,3.0,27560.0,50.0986433,20.0132206,635000.0,3.0,63.51,2020.0
387,Podgorze Duchackie Wola Duchacka,Krakow,5.0,27087.0,50.0146222,19.953758,430636.8,2.0,40.78,2021.0
388,rodmiecie rodmiecie Ponocne ul wietokrzyska 16,Warszawa,5.0,11313.0,52.2353714,21.0105726,1410500.0,4.0,92.0,1950.0
389,Wesoa Stara Miosna,Warszawa,0.0,10274.0,52.224792,21.2251737,432000.0,2.0,38.0,2018.0
390,Wawer Radoc,Warszawa,0.0,11441.0,52.1857228,21.1871497,1000000.0,5.0,154.0,2012.0
391,PragaPonoc Jagiellonska,Warszawa,4.0,6640.0,52.2512338,21.0349704,429000.0,2.0,39.0,1985.0
392,Jezyce Podolany Strzeszynska,Poznan,3.0,2585.0,52.4536483,16.8849986,489000.0,3.0,63.0,2012.0
393,rodmiecie ul Grzybowska,Warszawa,10.0,8119.0,52.2357458,20.993720703559504,550000.0,2.0,38.8,1968.0
394,Wola Moczydo,Warszawa,1.0,11053.0,52.23411350000001,20.95388295432552,585000.0,3.0,54.0,1960.0
395,Jezyce Winiary Pistkowska,Poznan,3.0,2101.0,52.4006632,16.91973259178088,479118.0,3.0,56.7,2021.0
396,Mistrzejowice ul Piasta Koodzieja,Krakow,4.0,23357.0,50.0986433,20.0132206,478629.0,3.0,59.09,2022.0
397,Debniki KlinyZacisze bpa A Maysiaka,Krakow,3.0,29801.0,49.9988318,19.8938784,456987.0,3.0,66.23,2021.0
398,Podgorze Jozefinska,Krakow,2.0,20831.0,50.0456768,19.9530885,780000.0,3.0,57.0,1900.0
399,Mokotow Stegny Marsylska,Warszawa,8.0,9718.0,52.1755894,21.0513959,783900.0,4.0,67.0,1975.0
400,rodmiecie,Warszawa,1.0,15240.0,52.2328098,21.019067,2750000.0,5.0,169.4,1930.0
401,Nowe Miasto Malta ul Katowicka,Poznan,5.0,4757.0,52.3973449,16.9619394,308750.0,2.0,32.5,2022.0
402,Krowodrza wietokrzyska,Krakow,4.0,28586.0,50.07562685,19.9287277539394,889497.0,3.0,66.42,2020.0
403,Mokotow,Warszawa,5.0,16627.0,52.1939874,21.0457809,530000.0,3.0,57.6,1970.0
404,Mistrzejowice Piasta Koodzieja,Krakow,0.0,22194.0,50.0986433,20.0132206,512694.0,4.0,65.73,2020.0
405,Prsdnik Biay,Krakow,10.0,20001.0,50.1035684,19.9536031063012,390000.0,3.0,45.5,1983.0
406,Bielany Chomiczowka,Warszawa,10.0,8816.0,52.2774333,20.90687508296601,520000.0,3.0,64.0,1976.0
407,Bronowice Bronowicka,Krakow,5.0,20271.0,50.0778251,19.90068098696576,480000.0,3.0,45.0,1974.0
408,Mokotow,Warszawa,4.0,8175.0,52.1939874,21.0457809,539000.0,3.0,48.49,1968.0
409,Zwierzyniec Bielany ul Ksiecia Jozefa,Krakow,0.0,22024.0,50.0462733,19.8721668,458000.0,2.0,51.48,2021.0
410,Nowe Miasto Malta ul Katowicka,Poznan,2.0,5764.0,52.3973449,16.9619394,666130.0,4.0,91.88,2022.0
411,Bielany ul Klaudyny,Warszawa,10.0,12512.0,52.2829871,20.97379815171008,650000.0,3.0,60.0,1980.0
412,Stare Miasto Pistkowo ul Teofila Mateckiego,Poznan,1.0,3747.0,52.4611954,16.8977153,412148.0,3.0,54.23,2022.0
413,Debniki,Krakow,0.0,27123.0,50.0518611,19.9270367,921548.0,3.0,51.2,2019.0
414,Wzgorza Krzesawickie ulGustawa Morcinka,Krakow,1.0,26641.0,50.1047809,20.0362743,270013.0,2.0,38.03,2022.0
415,Stare Miasto Wilczak Wilczak 16 A,Poznan,0.0,6168.0,52.4300916,16.9514725830321,278308.0,1.0,33.94,2020.0
416,Ochota,Warszawa,0.0,17184.0,52.212225,20.9726299,1150000.0,4.0,90.0,2002.0
417,rodmiecie,Warszawa,2.0,8636.0,52.2328098,21.019067,475500.0,1.0,35.0,1953.0
418,Prsdnik Biay Gorka Narodowa Stefana Banacha,Krakow,3.0,24338.0,50.1015333,19.9640995,399000.0,2.0,40.71,2021.0
419,Grzegorzki Kazimierza Kordylewskiego,Krakow,2.0,28570.0,50.0603359,19.9623163,629000.0,2.0,47.13,2009.0
420,Nowe Miasto Malta abpa Walentego Dymka,Poznan,0.0,1240.0,52.3938613,16.9910647,264208.0,1.0,26.96,2020.0
421,Zoliborz,Warszawa,2.0,9422.0,52.2675944,20.9796975,1041456.0,3.0,66.76,2014.0
422,Grzegorzki al Pokoju,Krakow,2.0,22062.0,50.0589305,19.9762323,660000.0,3.0,70.0,1965.0
423,rodmiecie Emilii Plater,Warszawa,3.0,11060.0,52.2268815,21.005221879494137,1390000.0,4.0,101.0,1965.0
424,Mokotow Wygledow,Warszawa,7.0,9719.0,52.19513205,20.996452781843846,404000.0,1.0,29.6,1973.0
425,Wilda Debiec,Poznan,2.0,4236.0,52.3711081,16.9163707,196000.0,1.0,22.24,1983.0
426,Prsdnik Czerwony ul Zenona Klemensiewicza,Krakow,0.0,29282.0,50.0814925,19.9500226,225803.0,1.0,15.38,2021.0
427,Bronowice Stanczyka,Krakow,8.0,21372.0,50.0788285,19.8942504,475000.0,2.0,40.88,2021.0
428,PragaPoudnie,Warszawa,1.0,9384.0,52.2373961,21.0712578,1160000.0,3.0,78.0,2010.0
429,Bielany ul Marymoncka,Warszawa,7.0,6333.0,52.30015375,20.944642256299133,325000.0,1.0,27.0,1969.0
430,rodmiecie Powile Juliana Smulikowskiego,Warszawa,3.0,15895.0,52.2375043,21.0315428,2974800.0,4.0,123.95,2020.0
431,Nowa Huta Czyzyny Kamionka,Krakow,0.0,20855.0,50.0647613,20.0099164,375700.0,2.0,44.0,2022.0
432,Bemowo,Warszawa,0.0,8186.0,52.2389738,20.9132881,2150000.0,4.0,135.16,2007.0
433,Mokotow Katalonska,Warszawa,9.0,11895.0,52.1750539,21.0535694,329000.0,1.0,31.0,1979.0
434,Grunwald awica Bugarska,Poznan,4.0,2505.0,52.4041619,16.8668109,354123.0,3.0,48.51,1962.0
435,Zwierzyniec Krolowej Jadwigi,Krakow,2.0,29598.0,50.0550023,19.908853,915000.0,4.0,92.0,2019.0
436,Stare Miasto Bonerowska,Krakow,4.0,28121.0,50.059063,19.9457319,490000.0,2.0,41.5,1910.0
437,Wilanow Adama Branickiego,Warszawa,2.0,6842.0,52.154572,21.0706211,659000.0,2.0,60.08,2010.0
438,Bielany,Warszawa,5.0,16189.0,52.2776126,20.9472054,640000.0,3.0,58.0,2008.0
439,PragaPoudnie,Warszawa,3.0,12291.0,52.2373961,21.0712578,1047750.0,4.0,95.25,2021.0
440,Debniki Rzemielnicza,Krakow,6.0,23934.0,50.0469432,19.997153435836697,599000.0,2.0,44.39,2021.0
441,Ursus Dzieci Warszawy,Warszawa,0.0,11091.0,52.1906514,20.9125341,569000.0,3.0,70.0,2009.0
442,Krowodrza obzow Wrocawska,Krakow,4.0,28210.0,50.0782971,19.9236467,335000.0,1.0,29.45,1930.0
443,Mokotow Przestronne Sypialnia az 14m2 Atrakcyjny system patnoci,Warszawa,2.0,15171.0,52.2319581,21.0067249,539960.0,2.0,48.4,2022.0
444,Ochota ul Budki Szczeliwickie,Warszawa,0.0,7134.0,52.2319581,21.0067249,799000.0,3.0,66.66,2020.0
445,Krowodrza Adama Vetulaniego,Krakow,0.0,22511.0,50.0947269,19.9247728,280000.0,1.0,25.51,2021.0
446,Nowa Huta Czyzyny,Krakow,1.0,22255.0,50.0816349,20.016490706002102,358000.0,1.0,34.0,2015.0
447,Ursynow ul Jana Cybisa 6,Warszawa,3.0,7749.0,52.1552102,21.0225675,639000.0,4.0,80.24,1988.0
448,Grzegorzki Aleja Pokoju,Krakow,3.0,28515.0,50.0589305,19.9762323,495000.0,3.0,50.0,1968.0
449,Mokotow Sadyba Jana III Sobieskiego,Warszawa,1.0,10900.0,52.2174171,21.0354469,514350.0,2.0,38.1,1973.0
450,Krowodrza Krowoderskich Zuchow,Krakow,3.0,26253.0,50.08492885,19.931430599115654,599000.0,4.0,64.0,1970.0
451,Podgorze Stanisawa Mitery,Krakow,3.0,28574.0,50.0387673,19.9403193,435000.0,2.0,52.67,1952.0
452,agiewnikiBorek Faecki ul Zywiecka,Krakow,3.0,20720.0,50.014117,19.9179187,647000.0,3.0,67.0,2020.0
453,Bienczyce Osiedle Jagiellonskie,Krakow,0.0,23820.0,50.06165525,19.93365859224709,360000.0,2.0,43.0,1970.0
454,Stare Miasto Centrum ul Mieczysawa Niedziakowskiego,Poznan,0.0,3752.0,52.3993455,16.9246072,707200.0,4.0,83.2,2020.0
455,Biaoeka Tarchomin ul Odkryta,Warszawa,4.0,9423.0,52.3275351,20.93668,460000.0,2.0,49.0,2005.0
456,Ursynow Natolin,Warszawa,7.0,7137.0,52.1402821,21.0563452,729000.0,3.0,58.0,2006.0
457,agiewnikiBorek Faecki,Krakow,1.0,20518.0,50.0199633,19.9294446,690000.0,3.0,63.0,2020.0
458,Zwierzyniec Salwator,Krakow,0.0,19686.0,50.0550023,19.908853,1515000.0,4.0,95.0,2019.0
459,Wola Muranow Dzielna,Warszawa,4.0,12537.0,52.2467494,20.9931038,575000.0,2.0,48.96,1954.0
460,Nowe Miasto Rataje,Poznan,2.0,55.0,52.3901295,16.9535909,314029.0,2.0,37.46,2022.0
461,Zwierzyniec Wola Justowska,Krakow,0.0,29440.0,50.0650619,19.877649,1104000.0,4.0,175.0,2014.0
462,Wola Panska,Warszawa,3.0,8320.0,52.230245,20.9872991,960750.0,2.0,52.5,2010.0
463,rodmiecie Powile Solec,Warszawa,6.0,15911.0,52.2310219,21.0374508,1690000.0,2.0,80.0,1939.0
464,Mistrzejowice,Krakow,1.0,25972.0,50.09742625,20.00960263225891,354351.0,2.0,40.73,2022.0
465,Nowe Miasto Malta ul Katowicka,Poznan,3.0,5781.0,52.3973449,16.9619394,443362.5,3.0,50.67,2022.0
466,Biaoeka Berensona Leona,Warszawa,0.0,15292.0,52.3246245,21.0547602,395568.0,3.0,55.0,2021.0
467,Wilanow ul Sarmacka,Warszawa,1.0,13877.0,52.1656517,21.0767961,1153400.0,3.0,89.4,2006.0
468,Nowe Miasto Malta ul Katowicka,Poznan,1.0,5714.0,52.3973449,16.9619394,632380.0,4.0,90.34,2022.0
469,Nowe Miasto Sarnia,Poznan,0.0,4468.0,52.4127025,17.0427606,420000.0,2.0,71.38,2019.0
470,Wzgorza Krzesawickie,Krakow,0.0,25483.0,50.0984135,20.09201112156821,341500.0,2.0,34.2,2019.0
471,PragaPoudnie Ludwika Michaa Paca,Warszawa,4.0,7531.0,52.249132,21.0786689,470000.0,4.0,74.0,1956.0
472,Grzegorzki ul Fabryczna,Krakow,4.0,28910.0,50.058444,19.9702351,529540.0,1.0,36.52,2021.0
473,Ursynow,Warszawa,1.0,16567.0,52.141039,21.0323214,1200000.0,4.0,91.0,1988.0
474,Grzegorzki ul Grzegorzecka,Krakow,3.0,28681.0,50.0587885,19.9500605,464702.0,1.0,34.94,2020.0
475,Mistrzejowice Piasta Koodzieja,Krakow,1.0,22478.0,50.0986433,20.0132206,457725.0,3.0,61.03,2022.0
476,BiezanowProkocim Biezanow,Krakow,1.0,28006.0,50.0128958,20.0258584,538000.0,3.0,66.0,2005.0
477,Ursus,Warszawa,4.0,15962.0,52.1960985,20.8828989,989000.0,3.0,75.6,2001.0
478,Wola Juliana Konstantego Ordona,Warszawa,1.0,6498.0,52.2247928,20.9525803,772526.0,4.0,83.32,2021.0
479,Podgorze Paszow,Krakow,4.0,25824.0,50.0345327,19.9754459,501000.0,3.0,56.74,2022.0
480,Wola Ordona,Warszawa,5.0,12151.0,52.2247928,20.9525803,436000.0,2.0,36.5,2022.0
481,Wzgorza Krzesawickie ul Gustawa Morcinka,Krakow,0.0,25010.0,50.1047809,20.0362743,360528.0,3.0,48.72,2020.0
482,Mokotow rodziemnomorska,Warszawa,2.0,16487.0,52.2319581,21.0067249,959000.0,3.0,74.0,2019.0
483,wielkopolskie,Poznan,1.0,878.0,52.4006632,16.91973259178088,432500.0,2.0,51.2,2021.0
484,Mokotow ul Domaniewska 34B,Warszawa,2.0,9259.0,52.1839266,21.008725,428100.0,1.0,29.8,2022.0
485,Podgorze ul Stanisawa Klimeckiego,Krakow,2.0,24894.0,50.0492242,19.9703793,469000.0,2.0,38.97,2021.0
486,Biaoeka ul Ksty Grodziskie,Warszawa,2.0,13566.0,52.3246245,21.0547602,408054.0,2.0,57.88,2021.0
487,Stare Miasto Naramowice ul Czarnucha,Poznan,3.0,1966.0,52.4499763,16.9527562,534562.7,3.0,75.61,2020.0
488,Ursynow,Warszawa,1.0,17582.0,52.141039,21.0323214,999000.0,5.0,163.2,2000.0
489,Jezyce Podolany ul Jasielska,Poznan,4.0,5310.0,52.4425069,16.8935656,541630.5,4.0,88.07,2021.0
490,Bielany Stare Bielany Aleja Zjednoczenia,Warszawa,2.0,6629.0,52.2838591,20.9555968,560000.0,2.0,52.0,1955.0
491,Wilda,Poznan,1.0,3076.0,52.3897748,16.9174381,189000.0,2.0,26.0,1905.0
492,BiezanowProkocim ul Maa Gora,Krakow,2.0,18311.0,50.0068653,20.0196406,438252.0,3.0,52.34,2021.0
493,Podgorze Duchackie Wola Duchacka,Krakow,2.0,22261.0,50.0146222,19.953758,540594.0,3.0,66.74,2021.0
494,Grzegorzki ul pk Francesco Nullo,Krakow,8.0,28795.0,50.0469432,19.997153435836697,492184.0,1.0,36.19,2022.0
495,Nowe Miasto Rataje acina,Poznan,6.0,2372.0,52.3968243,16.9609927,596970.0,4.0,66.31,2022.0
496,Biaoeka,Warszawa,0.0,15439.0,52.3196649,21.0211773,320251.0,1.0,29.93,2021.0
497,Mokotow Dolny Mokotow,Warszawa,4.0,9979.0,52.1964999,21.0463338,498000.0,1.0,33.48,1960.0
498,Grunwald Jeleniogorska,Poznan,2.0,4840.0,52.394455,16.8437222,649000.0,4.0,70.17,2015.0
499,Krowodrza Krowoderskich Zuchow,Krakow,4.0,24616.0,50.08492885,19.931430599115654,540000.0,5.0,67.0,1980.0
500,Jezyce ul Polna,Poznan,1.0,131.0,49.9752426,19.0947117,435000.0,3.0,56.4,1962.0
501,Podgorze Duchackie Wola Duchacka Czarnogorska,Krakow,3.0,28561.0,50.0197183,19.9709187,449000.0,3.0,53.0,1980.0
502,Mokotow ul Bokserska,Warszawa,0.0,6348.0,52.1696586,20.9970149,399000.0,1.0,32.37,2022.0
503,Stare Miasto Pistkowo os Stefana Batorego,Poznan,1.0,1233.0,52.424027,16.7207052,460000.0,3.0,55.3,1997.0
504,Nowa Huta Czyzyny Nowohucka 46,Krakow,3.0,23894.0,50.0558029,19.9993305,341200.0,2.0,34.12,2022.0
505,Stare Miasto Kleparz,Krakow,1.0,19258.0,50.0700397,19.9419902,1053910.0,3.0,87.1,1930.0
506,Krowodrza Prsdnicka,Krakow,1.0,28223.0,50.0882793,19.9389231,890460.0,3.0,65.96,2016.0
507,Jezyce Bonin Turkusowa,Poznan,2.0,2207.0,52.4318662,16.9058054,345000.0,2.0,47.0,1985.0
508,Mokotow Stegny,Warszawa,9.0,18279.0,52.18897335,21.039847434774263,334000.0,1.0,31.0,1979.0
509,agiewnikiBorek Faecki Borek Faecki Zywiecka,Krakow,0.0,28124.0,50.014117,19.9179187,899000.0,3.0,82.0,2019.0
510,Jezyce Adama Mickiewicza,Poznan,1.0,5493.0,52.4097878,16.9108509,991749.5,3.0,110.81,2020.0
511,Mokotow ul Domaniewska 34B,Warszawa,5.0,9325.0,52.1839266,21.008725,454800.0,1.0,30.07,2022.0
512,Mistrzejowice ul Piasta Koodzieja,Krakow,1.0,23306.0,50.0986433,20.0132206,450528.0,3.0,57.76,2022.0
513,Grzegorzki ul Fabryczna,Krakow,4.0,28836.0,50.058444,19.9702351,933939.0,3.0,75.93,2021.0
514,Nowa Huta Osiedle Soneczne,Krakow,2.0,24138.0,50.0771546,20.0393941,249000.0,1.0,26.1,1954.0
515,Mistrzejowice,Krakow,2.0,24474.0,50.09742625,20.00960263225891,399999.0,3.0,47.6,1974.0
516,Ochota al Aleje Jerozolimskie,Warszawa,10.0,7961.0,52.2274779,20.9993834,1250000.0,4.0,102.0,1999.0
517,Bemowo Gorce,Warszawa,2.0,17693.0,52.2391078,20.9130415,726000.0,3.0,78.0,1998.0
518,Mokotow Stegny,Warszawa,0.0,14337.0,52.18897335,21.039847434774263,1351840.0,3.0,84.49,2021.0
519,Stare Miasto Centrum ul Mieczysawa Niedziakowskiego,Poznan,5.0,1138.0,52.3993455,16.9246072,644400.0,2.0,53.7,2020.0
520,Mistrzejowice ul Piasta Koodzieja,Krakow,2.0,23322.0,50.0986433,20.0132206,478629.0,3.0,59.09,2022.0
521,Grzegorzki ul Grzegorzecka,Krakow,5.0,28672.0,50.0587885,19.9500605,466620.0,1.0,33.33,2020.0
522,Nowa Huta os Centrum C,Krakow,5.0,25144.0,50.0741729,20.036048,415000.0,2.0,39.0,1960.0
523,Mokotow ul Racawicka 42,Warszawa,4.0,7936.0,52.1967394,21.006096484004484,540000.0,2.0,48.0,1956.0
524,Debniki Ruczaj Chmieleniec,Krakow,3.0,22954.0,50.0204807,19.8980137,645000.0,3.0,68.0,2007.0
525,Bielany Wrzeciono Jana Kasprowicza,Warszawa,2.0,17604.0,52.2822246,20.9480339,495000.0,3.0,49.0,1968.0
526,Podgorze Koszykarska,Krakow,1.0,26540.0,50.0498929,19.9906026,475000.0,3.0,57.88,2021.0
527,Wesoa Stara Miosna,Warszawa,3.0,16902.0,52.224792,21.2251737,414656.0,3.0,54.56,2020.0
528,Stare Miasto Naramowice,Poznan,0.0,4614.0,52.4496489,16.9494082,541000.0,4.0,76.0,2020.0
529,Mokotow Atrakcyjny system 1090 Kup korzystnie,Warszawa,5.0,15172.0,52.2319581,21.0067249,385720.0,1.0,28.1,2022.0
530,Stare Miasto w Gertrudy,Krakow,2.0,19053.0,50.0594355,19.9419231,410000.0,2.0,29.48,1886.0
531,PragaPoudnie Grochow Grenadierow,Warszawa,2.0,15505.0,52.24444995,21.075752229641903,440450.0,2.0,38.3,2021.0
532,Ursus ul Stanisawa Wojciechowskiego 54,Warszawa,0.0,6459.0,52.1954115,20.87021501282089,350000.0,2.0,38.0,1970.0
533,Stare Miasto Centrum Piekary,Poznan,2.0,5446.0,52.3000208,16.5711555,405000.0,2.0,90.0,1905.0
534,Ursus Dzieci Warszawy,Warszawa,3.0,16988.0,52.1906514,20.9125341,467900.0,3.0,51.55,2021.0
535,Targowek,Warszawa,0.0,11219.0,52.2751918,21.0580854,399000.0,2.0,38.0,1970.0
536,Bronowice ul Jozefa Chemonskiego,Krakow,3.0,19170.0,50.0863097,19.9139884,520000.0,2.0,47.5,2013.0
537,Wola,Warszawa,0.0,13094.0,52.2362379,20.9547815,744000.0,2.0,50.0,2011.0
538,Bielany Wrzeciono,Warszawa,3.0,11488.0,52.2915543,20.9450519,499900.0,3.0,56.04,1970.0
539,Prsdnik Czerwony ul Dobrego Pasterza,Krakow,4.0,19237.0,50.0878647,19.9683977,350000.0,1.0,26.62,2012.0
540,Bienczyce,Krakow,1.0,22009.0,50.08605125,20.02922626218556,285000.0,2.0,36.0,1964.0
541,Wilda ul Rozana,Poznan,4.0,4440.0,52.39668745,16.92476432527171,299000.0,2.0,45.0,2020.0
542,Mokotow Dolny Mokotow Gorska,Warszawa,1.0,7899.0,52.2043269,21.0365519,605000.0,2.0,46.3,1955.0
543,Nowe Miasto Antoninek abpa Walentego Dymka,Poznan,4.0,3756.0,52.3938613,16.9910647,774367.0,5.0,82.82,2020.0
544,Grzegorzki,Krakow,0.0,24211.0,50.06497215,19.968825516425383,265000.0,1.0,20.0,1970.0
545,Grzegorzki ul w azarza,Krakow,1.0,19682.0,50.0587655,19.9505395,687500.0,1.0,44.36,2015.0
546,PragaPoudnie ul gen Augusta Emila Fieldorfa,Warszawa,1.0,7908.0,52.2319581,21.0067249,1160000.0,3.0,78.0,2010.0
547,Biaoeka Kasztanowa,Warszawa,0.0,7800.0,52.3087554,20.9818519,457000.0,2.0,47.9,2014.0
548,Podgorze Solna,Krakow,1.0,27454.0,50.0476566,19.9537741,880000.0,3.0,68.48,2016.0
549,Stare Miasto,Krakow,2.0,20040.0,50.0590398,19.93716829792899,853390.6,1.0,36.13,2021.0
550,Debniki Debnicki,Krakow,2.0,26228.0,50.0520343,19.9269287,1290000.0,3.0,96.0,1905.0
551,Nowa Huta Czyzyny os Dywizjonu 303,Krakow,3.0,21449.0,50.0818649,20.0122791,655000.0,3.0,70.0,2019.0
552,Debniki Ruczaj dr Jana Piltza,Krakow,0.0,19760.0,50.0076191,19.8888826,428000.0,2.0,52.64,2010.0
553,Nowa Huta Czyzyny Nowohucka 46,Krakow,3.0,30225.0,50.0558029,19.9993305,436230.0,2.0,47.16,2022.0
554,Nowa Huta Czyzyny Nowohucka 46,Krakow,4.0,30196.0,50.0558029,19.9993305,372632.0,2.0,35.83,2022.0
555,Podgorze Duchackie Wola Duchacka Kamienskiego,Krakow,4.0,25121.0,50.0288704,19.9568753,529000.0,3.0,60.0,2021.0
556,Podgorze ul Stanisawa Klimeckiego,Krakow,3.0,24906.0,50.0492242,19.9703793,469000.0,2.0,39.07,2021.0
557,Debniki KlinyZacisze,Krakow,2.0,20020.0,50.00969645000001,19.90590180362617,440000.0,2.0,46.54,2018.0
558,rodmiecie ul Piwna,Warszawa,1.0,10930.0,52.2488754,21.0119391,2800000.0,3.0,84.0,1952.0
559,Podgorze,Krakow,4.0,23609.0,50.0430999,19.9529614,385000.0,2.0,44.0,1970.0
560,Mistrzejowice os Bohaterow Wrzenia,Krakow,0.0,29430.0,50.0987686,20.0125241,507000.0,4.0,74.0,1992.0
561,Nowe Miasto Rataje Rondo Rataje,Poznan,6.0,863.0,52.3901295,16.9535909,370000.0,2.0,48.4,1978.0
562,Prsdnik Biay Stefana Banacha,Krakow,3.0,18712.0,50.1015333,19.9640995,489491.0,3.0,60.65,2022.0
563,Nowe Miasto Malta ul Katowicka,Poznan,6.0,4686.0,52.3973449,16.9619394,403337.5,2.0,39.35,2022.0
564,Prsdnik Czerwony,Krakow,4.0,21797.0,50.0859419,19.96660060819073,425000.0,2.0,31.37,2020.0
565,Grzegorzki ul Fabryczna,Krakow,4.0,28907.0,50.058444,19.9702351,715780.0,3.0,55.06,2021.0
566,Nowe Miasto Malta ul Katowicka,Poznan,4.0,5840.0,52.3973449,16.9619394,599600.0,3.0,74.95,2022.0
567,Jezyce Podolany,Poznan,4.0,1605.0,52.456781,16.887939,636000.0,4.0,88.59,2020.0
568,Nowe Miasto Malta ul Katowicka,Poznan,6.0,4770.0,52.3973449,16.9619394,596790.0,4.0,66.31,2022.0
569,Bienczyce,Krakow,10.0,19891.0,50.08605125,20.02922626218556,330000.0,2.0,37.95,1968.0
570,rodmiecie Nowe Miasto Piwna,Warszawa,2.0,13513.0,52.2488754,21.0119391,1050000.0,2.0,60.55,1953.0
571,Jezyce Poznanska,Poznan,5.0,3871.0,52.4132264,16.9042942,677000.0,5.0,79.1,1900.0
572,Prsdnik Biay ul Stefana Banacha,Krakow,0.0,21477.0,50.1021791,19.9559231,475176.0,4.0,60.92,2022.0
573,BiezanowProkocim Konrada Wallenroda,Krakow,3.0,20376.0,50.0176748,20.0011197,406000.0,2.0,40.0,2014.0
574,Podgorze Zabocie Stanisawa Klimeckiego,Krakow,2.0,23747.0,50.0492242,19.9703793,749000.0,3.0,74.05,2021.0
575,Mistrzejowice Piasta Koodzieja,Krakow,5.0,24645.0,50.0986433,20.0132206,336518.0,2.0,36.98,2021.0
576,Stare Miasto Wawel Sukiennicza,Krakow,4.0,25223.0,50.0512149,19.9380389,1400000.0,2.0,71.0,2015.0
577,Prsdnik Biay,Krakow,4.0,21845.0,50.1035684,19.9536031063012,630000.0,4.0,90.0,1996.0
578,PragaPonoc,Warszawa,5.0,14920.0,52.2648843,21.0273442,1600000.0,4.0,90.59,1911.0
579,Biaoeka,Warszawa,1.0,9774.0,52.3196649,21.0211773,365000.0,2.0,37.0,2017.0
580,agiewnikiBorek Faecki Borek Faecki,Krakow,0.0,22432.0,50.0232502,19.9346479,899470.0,3.0,81.8,2018.0
581,Wilda,Poznan,1.0,4156.0,52.3897748,16.9174381,360000.0,1.0,50.0,2009.0
582,Mistrzejowice ul Piasta Koodzieja,Krakow,5.0,23403.0,50.0986433,20.0132206,354351.0,2.0,40.73,2022.0
583,Bemowo ul gen Tadeusza Peczynskiego,Warszawa,1.0,14181.0,52.2319581,21.0067249,800000.0,3.0,71.11,2011.0
584,Prsdnik Biay Henryka Pachonskiego,Krakow,2.0,22453.0,50.0949773,19.920405494289955,384842.0,2.0,39.88,2022.0
585,Mokotow Sielce Chemska,Warszawa,5.0,13140.0,52.2017608,21.03642068914673,1690000.0,4.0,109.0,2007.0
586,Rembertow,Warszawa,3.0,8638.0,52.2614149,21.1628191,350000.0,2.0,38.0,1965.0
587,Prsdnik Biay Gorka Narodowa,Krakow,1.0,19128.0,50.0974858,19.9592694,339000.0,2.0,36.0,2020.0
588,Bronowice Bronowice Mae Wizjonerow,Krakow,1.0,26715.0,50.0849209,19.8909484,760000.0,4.0,70.0,2018.0
589,Wawer Falenica,Warszawa,0.0,11966.0,52.1620483,21.2106772,449000.0,3.0,59.0,2022.0
590,Wilanow ul Prymasa Augusta Hlonda,Warszawa,0.0,6339.0,52.158490650000005,21.06594441671797,799900.0,2.0,61.0,2008.0
591,Prsdnik Biay Biaoprsdnicka,Krakow,0.0,28464.0,50.0469432,19.997153435836697,443000.0,3.0,48.5,2008.0
592,PragaPoudnie Gocaw Marsa,Warszawa,1.0,9851.0,52.2415762,21.1355847,542300.0,3.0,64.95,2021.0
593,PragaPoudnie,Warszawa,2.0,15609.0,52.2373961,21.0712578,1105000.0,4.0,85.0,2013.0
594,Mistrzejowice,Krakow,3.0,22614.0,50.09742625,20.00960263225891,572520.0,4.0,73.4,2020.0
595,PragaPonoc Radzyminska,Warszawa,1.0,7166.0,52.2563947,21.0501299,417216.0,2.0,40.38,2021.0
596,BiezanowProkocim ul Mariana Domagay,Krakow,4.0,27855.0,50.0219561,20.0509824,324880.0,3.0,52.4,2021.0
597,Stare Miasto,Poznan,1.0,816.0,52.4087213,16.9336538,415000.0,2.0,52.4,1960.0
598,Wochy Okecie Aleja Dwudziestolatkow,Warszawa,3.0,6999.0,52.1927735,20.9690439,379000.0,2.0,37.2,1970.0
599,Nowe Miasto Malta ul Katowicka,Poznan,0.0,4944.0,52.3973449,16.9619394,430695.0,3.0,50.67,2022.0
600,Wola ul Jana Kazimierza,Warszawa,0.0,11080.0,52.2245316,20.9479724,549000.0,3.0,47.0,2020.0
601,Prsdnik Biay Stefana Banacha,Krakow,2.0,20610.0,50.1015333,19.9640995,681059.0,4.0,79.64,2021.0
602,Grunwald,Poznan,1.0,949.0,52.404212,16.882542,389000.0,2.0,50.7,2020.0
603,Targowek Brodno,Warszawa,4.0,9028.0,52.2775271,21.0223526,352500.0,2.0,37.5,1968.0
604,Jezyce Stanisawa Szczepanowskiego,Poznan,1.0,3985.0,52.4188529,16.8976818,517030.45,3.0,65.49,2021.0
605,Mokotow ul Kobucka,Warszawa,0.0,14178.0,52.1599734,20.990916185264226,479900.0,2.0,43.93,2021.0
606,Wawer,Warszawa,1.0,16676.0,52.2203581,21.1370825,279372.0,1.0,30.04,2022.0
607,Stare Miasto al 29 Listopada,Krakow,2.0,21306.0,49.9730627,19.8323374,669000.0,2.0,58.94,2018.0
608,Prsdnik Biay Gorka Narodowa ks Jozefa Meiera,Krakow,2.0,23513.0,50.0969632,19.9652068,495000.0,2.0,60.0,2008.0
609,Prsdnik Czerwony Rakowice bp Jana Prandoty,Krakow,5.0,21689.0,50.0791121,19.949934073837213,379999.0,2.0,29.3,2020.0
610,PragaPonoc ul Szwedzka,Warszawa,2.0,11917.0,52.2634539,21.0453302,734107.0,3.0,60.5,2022.0
611,Grzegorzki Olsza ul Zuowska,Krakow,2.0,20278.0,50.0810191,19.9604032,155000.0,1.0,30.0,2020.0
612,Grunwald Gorczyn ul Romana Dmowskiego,Poznan,4.0,5135.0,52.3817991,16.8916385,468600.0,2.0,61.52,2021.0
613,Grunwald,Poznan,1.0,772.0,52.404212,16.882542,375000.0,3.0,53.0,1983.0
614,rodmiecie Powile,Warszawa,1.0,12085.0,52.2427517,21.0240188,961620.0,2.0,43.71,2021.0
615,Prsdnik Biay Azory Mariana Smoluchowskiego,Krakow,3.0,24505.0,50.0721122,19.909405,590000.0,2.0,52.0,1960.0
616,Stare Miasto Kleparz Duga,Krakow,4.0,27520.0,50.2658017,19.785956,799000.0,3.0,69.0,1930.0
617,Wola,Warszawa,2.0,12929.0,52.2362379,20.9547815,530000.0,2.0,56.2,1956.0
618,Nowe Miasto Gowna Smolna,Poznan,2.0,337.0,52.4231414,16.9652034,599000.0,3.0,53.0,2015.0
619,Debniki Sidzina Bronisawa Geremka,Krakow,1.0,27287.0,50.0038595,19.8928756,423000.0,3.0,63.2,2020.0
620,Ursus,Warszawa,3.0,10029.0,52.1960985,20.8828989,460000.0,2.0,47.36,1997.0
621,Nowe Miasto Malta ul Katowicka,Poznan,6.0,4654.0,52.3973449,16.9619394,531090.0,3.0,59.01,2022.0
622,BiezanowProkocim,Krakow,2.0,23249.0,50.01706235,20.022991856015395,375000.0,2.0,40.85,2017.0
623,Nowa Huta,Krakow,1.0,21114.0,50.080618650000005,20.12933219800524,370000.0,2.0,45.0,1956.0
624,rodmiecie Gornolsska,Warszawa,2.0,11724.0,52.2319581,21.0067249,675000.0,2.0,44.81,1956.0
625,Debniki,Krakow,6.0,24106.0,50.0518611,19.9270367,579000.0,2.0,46.35,2021.0
626,PragaPoudnie Gocaw,Warszawa,4.0,8606.0,52.2286331,21.1065722,499512.0,2.0,45.58,2022.0
627,Wawer Marysin Wawerski ul Bluszczowa,Warszawa,2.0,6607.0,52.2391087,21.1343092,484642.5,2.0,54.15,2021.0
628,Nowe Miasto Zawady Studzienna,Poznan,2.0,3789.0,52.4205511,16.9649872,264317.0,1.0,34.66,2020.0
629,Debniki ul Sandomierska,Krakow,3.0,18824.0,50.0517401,19.9311178,795120.0,3.0,66.26,2015.0
630,Grzegorzki,Krakow,1.0,29076.0,50.06497215,19.968825516425383,649990.0,3.0,50.0,2015.0
631,Prsdnik Biay Henryka Pachonskiego,Krakow,1.0,22381.0,50.0949773,19.920405494289955,478350.0,3.0,53.15,2022.0
632,Nowe Miasto Rataje os Armii Krajowej,Poznan,8.0,2155.0,52.3795223,16.9514537,399999.0,3.0,77.25,1979.0
633,Stare Miasto Naramowice ul Czarnucha,Poznan,3.0,1959.0,52.4499763,16.9527562,346076.5,2.0,48.95,2020.0
634,Wola,Warszawa,7.0,15613.0,52.2362379,20.9547815,1026975.47,4.0,98.7,2022.0
635,PragaPoudnie Gocaw Wadysawa Uminskiego,Warszawa,7.0,12695.0,52.22741705,21.096970158275138,525000.0,3.0,59.3,1982.0
636,Wawer poematu,Warszawa,4.0,7422.0,52.157683,21.200816,599000.0,3.0,56.4,2020.0
637,PragaPoudnie,Warszawa,10.0,12714.0,52.2373961,21.0712578,385000.0,2.0,48.0,1982.0
638,rodmiecie,Warszawa,4.0,13536.0,52.2328098,21.019067,1465000.0,3.0,68.74,2009.0
639,Rembertow Stary Rembertow,Warszawa,0.0,13406.0,52.2670975,21.1605884,295000.0,2.0,35.81,1962.0
640,rodmiecie Madalinskiego,Krakow,1.0,28204.0,50.0527679,19.9282413,704438.56,1.0,41.4,2020.0
641,Stare Miasto,Poznan,4.0,1514.0,52.4087213,16.9336538,533688.0,3.0,75.3,2021.0
642,Prsdnik Czerwony Ugorek,Krakow,7.0,20809.0,50.0770694,19.9803386,245000.0,1.0,19.86,1965.0
643,Ursynow al Komisji Edukacji Narodowej,Warszawa,3.0,13655.0,52.1620456,21.0276283,959000.0,3.0,75.0,2010.0
644,Krowodrza Fryderyka Chopina,Krakow,3.0,18422.0,50.0675086,19.9172663,1590000.0,3.0,100.0,1938.0
645,rodmiecie,Warszawa,2.0,17289.0,52.2328098,21.019067,900000.0,2.0,56.0,1959.0
646,BiezanowProkocim Biezanow Agatowa,Krakow,4.0,22323.0,50.0225216,20.0481276,367400.0,3.0,51.0,2021.0
647,Prsdnik Biay Azory,Krakow,8.0,21975.0,50.089965,19.90583066597115,330000.0,2.0,37.0,1970.0
648,Nowe Miasto ul Katowicka,Poznan,1.0,415.0,52.3973449,16.9619394,546250.0,2.0,57.5,2007.0
649,Stare Miasto Winogrady,Poznan,4.0,2907.0,52.4348647,16.9383531,399000.0,4.0,65.0,1977.0
650,Warszawa mazowieckie,Warszawa,2.0,11581.0,52.2066067,20.8814935,469025.4,3.0,53.88,2021.0
651,Prsdnik Biay Szymona Zimorowicza,Krakow,4.0,21278.0,50.0950503,19.9284425,475099.0,3.0,53.04,2020.0
652,Grzegorzki Dsbie Pokoju,Krakow,1.0,21490.0,50.0589305,19.9762323,472875.86,3.0,64.78,2023.0
653,Mistrzejowice,Krakow,0.0,19333.0,50.09742625,20.00960263225891,434970.0,2.0,48.33,2020.0
654,Prsdnik Biay al 29 Listopada,Krakow,1.0,29776.0,49.9730627,19.8323374,440775.0,3.0,58.77,2020.0
655,Nowa Huta Fatimska,Krakow,4.0,23483.0,50.0848747,20.0371374,400000.0,3.0,53.0,1980.0
656,Podgorze Bonarka Walerego Sawka,Krakow,0.0,21924.0,50.0205244,19.9601785,559000.0,3.0,62.66,2021.0
657,Prsdnik Biay Mikoaja Reja,Krakow,0.0,22748.0,50.086051,19.9433075,550000.0,3.0,67.63,2005.0
658,Stare Miasto Centrum gen Tadeusza Kutrzeby,Poznan,4.0,1248.0,52.41540805,16.93037424741808,699000.0,3.0,69.0,2008.0
659,Prsdnik Czerwony Wilenska,Krakow,8.0,28424.0,50.0811975,19.95581,540000.0,3.0,60.0,1984.0
660,Bemowo,Warszawa,0.0,8194.0,52.2389738,20.9132881,665900.0,3.0,59.0,2019.0
661,Wochy,Warszawa,3.0,6675.0,52.1861093,20.9484377,569000.0,3.0,60.0,2008.0
662,Jezyce Ogrody,Poznan,1.0,1485.0,52.42081485,16.892762957086852,585000.0,3.0,64.18,2014.0
663,Podgorze Duchackie ul Sebastiana Klonowica,Krakow,3.0,19331.0,50.0197558,19.9528554,543120.0,2.0,67.89,2020.0
664,Grunwald awica Bugarska,Poznan,1.0,5646.0,52.4041619,16.8668109,456234.75,3.0,65.41,2020.0
665,Mokotow Biaej Koniczyny,Warszawa,1.0,8459.0,52.1842458,21.042709,2434306.0,5.0,154.0,2019.0
666,PragaPoudnie ul Garwolinska,Warszawa,6.0,14082.0,52.2484742,21.0919379,413000.0,2.0,46.0,1950.0
667,PragaPoudnie,Warszawa,0.0,16506.0,52.2373961,21.0712578,460000.0,2.0,46.0,1990.0
668,PragaPoudnie Grochowska,Warszawa,1.0,17785.0,52.2497745,21.1068857,240275.0,1.0,24.36,2021.0
669,Ursus,Warszawa,7.0,15611.0,52.1960985,20.8828989,549000.0,3.0,63.84,2020.0
670,Stare Miasto ul gen Romana Sotyka,Krakow,3.0,19082.0,50.0469432,19.997153435836697,1500000.0,4.0,134.0,1938.0
671,Mistrzejowice ul Piasta Koodzieja,Krakow,1.0,23293.0,50.0986433,20.0132206,410184.0,3.0,50.64,2022.0
672,Mokotow,Warszawa,7.0,10148.0,52.1939874,21.0457809,390000.0,1.0,31.0,1973.0
673,PragaPoudnie,Warszawa,7.0,13191.0,52.2373961,21.0712578,480000.0,2.0,48.0,1979.0
674,Debniki,Krakow,0.0,29699.0,50.0518611,19.9270367,629000.0,2.0,48.13,2021.0
675,PragaPoudnie Gocaw Miedzyborska 19,Warszawa,1.0,6281.0,52.23300965,21.08578848104489,650000.0,3.0,52.0,2000.0
676,Stare Miasto Winogrady Wilczak 20,Poznan,5.0,6050.0,52.430023250000005,16.95269067658415,394320.0,2.0,49.6,2020.0
677,rodmiecie,Warszawa,5.0,9105.0,52.2328098,21.019067,950000.0,3.0,60.0,1970.0
678,Nowa Huta Czyzyny,Krakow,2.0,21864.0,50.0816349,20.016490706002102,441243.0,2.0,44.57,2018.0
679,Prsdnik Czerwony Jakuba Majora,Krakow,10.0,22287.0,50.0884029,19.96545315306553,1350000.0,4.0,118.5,2008.0
680,Grunwald,Poznan,1.0,265.0,52.404212,16.882542,355000.0,2.0,44.0,1910.0
681,PragaPonoc,Warszawa,5.0,6858.0,52.2648843,21.0273442,340000.0,1.0,26.0,2021.0
682,Ursus ul Gorna Droga,Warszawa,2.0,8080.0,52.1840475,20.8681863,410000.0,2.0,45.0,2001.0
683,Swoszowice Macieja Debskiego,Krakow,2.0,29389.0,49.9884929,19.911094,448500.0,3.0,67.0,2016.0
684,agiewnikiBorek Faecki Borek Faecki,Krakow,0.0,23253.0,50.0232502,19.9346479,889470.0,3.0,81.8,2019.0
685,Wilanow,Warszawa,1.0,10160.0,52.1530829,21.1104411,650000.0,2.0,51.04,2011.0
686,Mokotow Biaej Koniczyny,Warszawa,0.0,9361.0,52.1842458,21.042709,2715606.0,4.0,168.0,2021.0
687,Podgorze Duchackie ul Walerego Sawka,Krakow,7.0,24741.0,50.0242313,19.959569,399000.0,2.0,38.86,2021.0
688,rodmiecie Frycza Modrzewskiego,Krakow,6.0,20420.0,50.05088545,19.964248157558234,569000.0,2.0,48.4,2001.0
689,Prsdnik Biay,Krakow,7.0,21129.0,50.1035684,19.9536031063012,515000.0,3.0,55.3,2009.0
690,Podgorze,Krakow,1.0,26473.0,50.0430999,19.9529614,738172.0,3.0,74.45,2021.0
691,Jezyce,Poznan,3.0,1606.0,52.413045,16.9022122,479000.0,3.0,79.37,1905.0
692,Ochota Szczeliwice Zadumana,Warszawa,3.0,14586.0,52.20631145,20.950091656132912,1100000.0,3.0,90.4,2001.0
693,Wawer Miedzeszyn Celulozy,Warszawa,0.0,12731.0,52.1691506,21.1750432,525000.0,3.0,75.0,2020.0
694,Targowek,Warszawa,4.0,8253.0,52.2751918,21.0580854,1220000.0,4.0,88.0,2018.0
695,Wilda Debiec,Poznan,0.0,2849.0,52.3711081,16.9163707,299000.0,2.0,37.5,1975.0
696,Mistrzejowice ul Piasta Koodzieja,Krakow,4.0,28357.0,50.0986433,20.0132206,729902.0,4.0,87.94,2020.0
697,Wochy CH Reduta Blue City,Warszawa,1.0,9358.0,52.2319581,21.0067249,591000.0,3.0,63.68,2021.0
698,Biaoeka,Warszawa,0.0,7918.0,52.3196649,21.0211773,377890.0,3.0,57.15,2020.0
699,Zwierzyniec Jesionowa,Krakow,0.0,24671.0,50.067974,19.8748544,769940.0,2.0,56.2,2020.0
700,Grzegorzki ul Fabryczna,Krakow,6.0,28855.0,50.058444,19.9702351,1068993.0,3.0,86.91,2021.0
701,Grunwald,Poznan,2.0,1206.0,52.404212,16.882542,349000.0,2.0,42.42,1977.0
702,Wilda ul Przemysowa,Poznan,4.0,70.0,52.392868,16.9194578,310000.0,1.0,36.31,2009.0
703,Stare Miasto ul Szyperska Garbary,Poznan,4.0,4923.0,52.4006632,16.91973259178088,536224.0,1.0,51.56,2009.0
704,Bemowo,Warszawa,0.0,14611.0,52.2389738,20.9132881,499000.0,1.0,61.23,2009.0
705,rodmiecie,Warszawa,1.0,12645.0,52.2328098,21.019067,828836.0,3.0,69.77,2021.0
706,Mokotow Sielce Jazgarzewska,Warszawa,1.0,15426.0,52.2005234,21.0389007,2490000.0,4.0,133.87,2007.0
707,Wilanow Marconich,Warszawa,3.0,9701.0,52.1700191,21.0707784,1190000.0,4.0,136.0,2001.0
708,Bielany,Warszawa,7.0,10207.0,52.2776126,20.9472054,325000.0,1.0,27.0,1969.0
709,Mokotow ul Domaniewska 34B,Warszawa,6.0,9248.0,52.1839266,21.008725,477500.0,1.0,31.08,2022.0
710,Debniki KlinyZacisze ul Anny Szwedniadowskiej 44,Krakow,2.0,18319.0,50.0469432,19.997153435836697,440000.0,2.0,46.54,2018.0
711,Targowek ul Janinowka,Warszawa,3.0,12052.0,52.2731183,21.0568587,547000.0,3.0,58.6,1976.0
712,rodmiecie Mogilska,Krakow,3.0,21667.0,50.0666138,19.9645711,569000.0,2.0,48.69,1966.0
713,Grunwald awica Bukowska,Poznan,2.0,3291.0,52.4068774,16.9082569,379000.0,3.0,76.41,1930.0
714,Mistrzejowice Piasta Koodzieja,Krakow,2.0,25035.0,50.0986433,20.0132206,389016.0,2.0,36.02,2020.0
715,Zoliborz,Warszawa,2.0,16163.0,52.2675944,20.9796975,1157700.0,3.0,88.0,2014.0
716,Wochy ul Budki Szczeliwickie,Warszawa,1.0,9806.0,52.2319581,21.0067249,573000.0,3.0,61.0,2021.0
717,Stare Miasto Pistkowo os Stefana Batorego,Poznan,3.0,2823.0,52.424027,16.7207052,445000.0,4.0,75.1,1991.0
718,Mistrzejowice ul Piasta Koodzieja,Krakow,0.0,23369.0,50.0986433,20.0132206,354351.0,2.0,40.73,2022.0
719,Krowodrza al Kijowska,Krakow,2.0,18518.0,50.0684308,19.9137868,669000.0,3.0,65.0,1980.0
720,Stare Miasto,Poznan,3.0,2863.0,52.4087213,16.9336538,435000.0,2.0,55.0,2020.0
721,rodmiecie,Warszawa,10.0,16644.0,52.2328098,21.019067,1456000.0,4.0,108.0,2020.0
722,Mokotow Zoty Potok,Warszawa,1.0,10372.0,52.1789967,21.0334932,394000.0,2.0,37.42,2022.0
723,Nowa Huta Czyzyny ul Wonicow,Krakow,4.0,25342.0,50.0469432,19.997153435836697,414000.0,1.0,34.5,2022.0
724,Mistrzejowice,Krakow,5.0,20247.0,50.09742625,20.00960263225891,380000.0,2.0,36.0,2020.0
725,rodmiecie Stare Miasto wietojanska,Warszawa,1.0,15533.0,52.2319581,21.0067249,940000.0,2.0,47.0,1953.0
726,Stare Miasto Florianska,Krakow,3.0,30072.0,50.063437,19.9402823,1250000.0,4.0,68.0,1900.0
727,Rembertow Chemzynska,Warszawa,3.0,9498.0,52.2459641,21.133045,225898.0,1.0,25.24,2022.0
728,Mokotow Cybernetyki,Warszawa,2.0,17257.0,52.1775042,20.9878921,849000.0,4.0,86.29,2020.0
729,Krowodrza Konarskiego,Krakow,4.0,25904.0,50.0840413,19.97816046757792,699000.0,4.0,113.0,1935.0
730,Debniki Barska,Krakow,0.0,29070.0,50.0471731,19.9322718,349000.0,1.0,31.0,1900.0
731,Krowodrza ul Nawojki,Krakow,2.0,18696.0,50.0686102,19.912086,740000.0,3.0,62.73,1978.0
732,Prsdnik Czerwony ul Promienistych,Krakow,0.0,24352.0,50.0858369,19.9714303,452270.0,2.0,46.15,2021.0
733,Bielany,Warszawa,2.0,10772.0,52.2776126,20.9472054,890000.0,3.0,63.0,1954.0
734,BiezanowProkocim,Krakow,3.0,18485.0,50.01706235,20.022991856015395,445608.0,4.0,61.89,2021.0
735,maopolskie,Krakow,2.0,24047.0,50.0619474,19.9368564,399000.0,2.0,44.21,2021.0
736,Targowek,Warszawa,8.0,10221.0,52.2751918,21.0580854,335000.0,2.0,35.0,1977.0
737,Podgorze Duchackie Wola Duchacka,Krakow,0.0,29942.0,50.0146222,19.953758,489600.0,3.0,61.2,2020.0
738,Ochota Bitwy Warszawskiej 1920 r,Warszawa,4.0,7291.0,52.21466075,20.9677258010271,735000.0,2.0,49.2,1955.0
739,Swoszowice Leona Petrazyckiego,Krakow,1.0,29307.0,49.9842491,19.8952713,495000.0,5.0,92.0,2020.0
740,Mokotow Zoty Potok,Warszawa,3.0,14979.0,52.1789967,21.0334932,435000.0,2.0,39.5,2021.0
741,Stare Miasto Pistkowo ul Teofila Mateckiego,Poznan,3.0,3827.0,52.4611954,16.8977153,406725.0,3.0,54.23,2022.0
742,Podgorze Zabocie pk Ryszarda Kuklinskiego,Krakow,5.0,27809.0,50.04450785,19.9731901,527138.0,2.0,49.73,2020.0
743,Nowa Huta Czyzyny os Dywizjonu 303,Krakow,10.0,19791.0,50.0818649,20.0122791,240000.0,1.0,24.0,1980.0
744,Stare Miasto,Krakow,1.0,20292.0,50.0590398,19.93716829792899,1150000.0,5.0,95.5,1880.0
745,PragaPoudnie,Warszawa,5.0,11678.0,52.2373961,21.0712578,550000.0,3.0,56.0,1970.0
746,Biaoeka Atrakcyjna,Warszawa,2.0,18035.0,52.3320653,21.0538995,370000.0,3.0,53.0,2021.0
747,Stare Miasto,Poznan,0.0,1276.0,52.4087213,16.9336538,455000.0,4.0,64.9,1980.0
748,Nowe Miasto Malta ul Katowicka,Poznan,1.0,5697.0,52.3973449,16.9619394,417605.0,3.0,49.13,2022.0
749,Ursynow ul Stanisawa Herbsta,Warszawa,1.0,12654.0,52.1561543,21.0344731,1200000.0,4.0,91.0,1988.0
750,Nowa Huta Czyzyny,Krakow,3.0,28266.0,50.0816349,20.016490706002102,398000.0,2.0,52.0,1962.0
751,Stare Miasto Naramowice ul Czarnucha,Poznan,1.0,2005.0,52.4499763,16.9527562,646692.9,4.0,91.47,2020.0
752,Grzegorzki,Krakow,10.0,29207.0,50.06497215,19.968825516425383,1999000.0,4.0,99.95,2020.0
753,Podgorze ul pk Ryszarda Kuklinskiego 7,Krakow,3.0,22501.0,50.0469432,19.997153435836697,520354.0,2.0,49.09,2020.0
754,Bielany ul Rudzka 5,Warszawa,2.0,7711.0,52.27851165,20.9734368,783400.0,3.0,58.59,2021.0
755,Podgorze ul Wielicka,Krakow,1.0,23660.0,50.0336609,19.9712973,349354.0,1.0,38.4,2021.0
756,Krowodrza,Krakow,3.0,20612.0,50.07087985,19.91656311814478,360000.0,2.0,37.1,1970.0
757,Ochota Grojecka,Warszawa,10.0,11652.0,52.211874,20.977725,810000.0,2.0,54.0,2010.0
758,Mokotow,Warszawa,1.0,15579.0,52.1939874,21.0457809,530000.0,3.0,53.15,1975.0
759,Biaoeka,Warszawa,0.0,17673.0,52.3196649,21.0211773,540000.0,3.0,65.0,2012.0
760,Podgorze Paszow Myliwska,Krakow,2.0,25838.0,50.0454593,20.0002025,423000.0,3.0,56.05,2023.0
761,Debniki Ruczaj,Krakow,1.0,27721.0,50.0230156,19.9083637,458068.0,2.0,49.79,2021.0
762,Mokotow Gorny Mokotow,Warszawa,6.0,10731.0,52.1926848,21.0107885,1650000.0,3.0,74.0,2005.0
763,Podgorze Duchackie Wola Duchacka,Krakow,4.0,29754.0,50.0146222,19.953758,509000.0,3.0,55.5,2021.0
764,BiezanowProkocim ul Nefrytowa,Krakow,2.0,18343.0,50.0206928,20.0476759,328800.0,3.0,54.0,2020.0
765,PragaPoudnie ukowska,Warszawa,3.0,14353.0,52.2368782,21.1124042,955000.0,5.0,108.0,1999.0
766,Bielany Marymont Ul Sowianska 23,Warszawa,2.0,13633.0,52.27575215,20.966036805175506,714248.0,2.0,46.99,2022.0
767,Nowa Huta Czyzyny ul prof Michaa Zyczkowskiego,Krakow,1.0,20850.0,50.0469432,19.997153435836697,679000.0,2.0,39.27,2020.0
768,Wawer ul Trawiasta,Warszawa,2.0,11073.0,52.2240399,21.1560411,1740000.0,6.0,200.3,2010.0
769,agiewnikiBorek Faecki Borek Faecki MontwiaMireckiego,Krakow,2.0,29627.0,50.0189691,19.9251115,295000.0,1.0,27.0,1966.0
770,Stare Miasto Centrum Zielona,Poznan,1.0,6109.0,52.4044498,16.935596,199000.0,1.0,41.83,1930.0
771,Debniki KlinyZacisze Komuny Paryskiej,Krakow,0.0,23786.0,49.9989124,19.8947491,684972.0,3.0,69.29,2022.0
772,Stare Miasto Centrum Piekary,Poznan,4.0,4451.0,52.3000208,16.5711555,339900.0,3.0,73.0,1900.0
773,Stare Miasto Kazimierz Beera Meiselsa,Krakow,2.0,26612.0,50.0514847,19.9445142,1200000.0,3.0,62.0,1930.0
774,PragaPoudnie,Warszawa,3.0,15071.0,52.2373961,21.0712578,625000.0,2.0,38.0,1938.0
775,Podgorze Duchackie Piaski Wielkie uzycka,Krakow,3.0,19756.0,50.0130357,19.9613468,420000.0,3.0,56.1,1978.0
776,Debniki Ruczaj Przemiarki,Krakow,3.0,20345.0,50.0223613,19.9021848,530000.0,3.0,54.8,2010.0
777,Mokotow,Warszawa,6.0,13273.0,52.1939874,21.0457809,896299.0,4.0,89.63,2021.0
778,Grunwald Jeleniogorska 13,Poznan,0.0,5626.0,52.404212,16.882542,472788.0,3.0,68.52,2021.0
779,Stare Miasto Wilczak Wilczak 16 A,Poznan,3.0,6162.0,52.4300916,16.9514725830321,468702.0,3.0,60.09,2020.0
780,Debniki Wacawa Lipinskiego,Krakow,4.0,21812.0,50.0303166,19.9252806,609000.0,3.0,58.0,2007.0
781,Prsdnik Biay Gorka Narodowa,Krakow,1.0,24451.0,50.0974858,19.9592694,449980.26,3.0,59.82,2021.0
782,agiewnikiBorek Faecki Borek Faecki Tokarska,Krakow,0.0,28767.0,50.021563,19.9281184,249000.0,1.0,26.0,1960.0
783,Ochota,Warszawa,0.0,13703.0,52.212225,20.9726299,275000.0,1.0,20.0,1967.0
784,rodmiecie,Warszawa,2.0,8637.0,52.2328098,21.019067,475500.0,1.0,35.0,1953.0
785,Nowe Miasto Warszawskie Warszawska,Poznan,2.0,709.0,52.4098535,17.0280267,510000.0,2.0,51.0,2017.0
786,Ursynow,Warszawa,10.0,8719.0,52.141039,21.0323214,430000.0,2.0,43.8,1981.0
787,Jezyce Podolany,Poznan,0.0,797.0,52.456781,16.887939,489000.0,3.0,55.72,2009.0
788,Zoliborz ul Piaskowa,Warszawa,4.0,11273.0,52.254744,20.9762654,1100000.0,3.0,76.2,2005.0
789,Podgorze,Krakow,3.0,20966.0,50.0430999,19.9529614,660000.0,3.0,75.1,2002.0
790,Grzegorzki ul pk Francesco Nullo,Krakow,2.0,28882.0,50.0469432,19.997153435836697,836252.0,3.0,76.37,2022.0
791,Podgorze Stare Podgorze,Krakow,3.0,21130.0,50.0444203,19.9493098,499000.0,1.0,37.2,1900.0
792,Bielany Heroldow,Warszawa,1.0,14543.0,52.3043936,20.9308802,385000.0,1.0,36.0,2001.0
793,Wola Prosta,Warszawa,10.0,16302.0,52.2320936,20.9928085,814999.0,2.0,33.59,2023.0
794,Stare Miasto Mikoaja Zyblikiewicza,Krakow,1.0,25563.0,50.0605245,19.9441727,680000.0,3.0,68.06,1905.0
795,Bronowice Juliusza Lea,Krakow,1.0,29153.0,50.0833247,19.869783648014888,1272770.37,5.0,107.0,2021.0
796,Centrum,Warszawa,10.0,8574.0,52.2311577,21.0100632,325000.0,1.0,18.0,2021.0
797,Nowa Huta Czyzyny Nowohucka 46,Krakow,4.0,30165.0,50.0558029,19.9993305,604752.0,4.0,70.32,2022.0
798,Grunwald azarz,Poznan,1.0,1211.0,52.40537,16.90232988904303,540000.0,3.0,73.7,1916.0
799,Zwierzyniec Emaus,Krakow,0.0,23406.0,50.0669379,19.8879255,1516000.0,4.0,95.0,2019.0
800,Bemowo Kawy,Warszawa,2.0,12205.0,52.26171,20.9222849,715000.0,3.0,67.0,1990.0
801,Zwierzyniec ul Piotra Borowego,Krakow,2.0,28545.0,50.063859,19.8884689,693000.0,2.0,46.0,2020.0
802,Wola Juliana Konstantego Ordona,Warszawa,2.0,15653.0,52.2247928,20.9525803,791770.0,4.0,80.1,2021.0
803,Nowe Miasto Malta ul Katowicka,Poznan,5.0,4926.0,52.3973449,16.9619394,648150.0,4.0,86.42,2022.0
804,Centrum,Warszawa,10.0,16554.0,52.2311577,21.0100632,260000.0,1.0,18.0,2021.0
805,Stare Miasto Naramowice Naramowicka Sielawy Karpia,Poznan,1.0,2380.0,52.4449107,16.9490349,334414.0,2.0,50.41,2021.0
806,Rembertow ul Chemzynska,Warszawa,4.0,11398.0,52.2459641,21.133045,469630.0,4.0,67.09,2022.0
807,PragaPoudnie Olszynka Grochowska ul Szklanych Domow,Warszawa,1.0,16976.0,52.2510926,21.0965627,555000.0,3.0,57.0,1960.0
808,Stare Miasto Westerplatte,Krakow,1.0,19099.0,50.06091,19.9439081,1150000.0,2.0,51.46,1930.0
809,rodmiecie Powile,Warszawa,5.0,10906.0,52.2427517,21.0240188,2026276.14,3.0,74.7,2020.0
810,Bronowice ul Bronowicka 5,Krakow,1.0,28309.0,50.0778251,19.90068098696576,459996.0,2.0,37.81,2021.0
811,Jezyce Adama Mickiewicza,Poznan,5.0,5494.0,52.4097878,16.9108509,913747.0,3.0,83.83,2020.0
812,Nowe Miasto Rataje os Stare Zegrze,Poznan,0.0,2175.0,52.3818328,16.963112,469000.0,3.0,64.0,1990.0
813,Mokotow ul Jana Pawa Woronicza,Warszawa,3.0,6288.0,52.18974245,21.00547419508401,540000.0,2.0,47.0,1959.0
814,Nowe Miasto rodka,Poznan,0.0,2596.0,52.4006632,16.91973259178088,327625.0,2.0,45.44,2018.0
815,Nowe Miasto Malta Florentyny Luboinskiej 5,Poznan,1.0,6100.0,52.3916079,16.99406261278815,535154.0,4.0,76.56,2019.0
816,Zwierzyniec Salwator okolice al Focha,Krakow,1.0,27938.0,50.0592709,19.9246371,693000.0,2.0,43.75,2020.0
817,Podgorze Duchackie Walerego Sawka,Krakow,5.0,24243.0,50.0242313,19.959569,419000.0,2.0,44.25,2021.0
818,Prsdnik Biay,Krakow,4.0,27548.0,50.1035684,19.9536031063012,481080.0,3.0,50.64,2021.0
819,Nowe Miasto Malta ul Katowicka,Poznan,4.0,4617.0,52.3973449,16.9619394,370092.5,2.0,40.01,2022.0
820,Prsdnik Biay,Krakow,0.0,30259.0,50.1035684,19.9536031063012,483226.0,4.0,68.06,2020.0
821,Mistrzejowice,Krakow,1.0,29078.0,50.09742625,20.00960263225891,692889.0,4.0,97.59,2020.0
822,Mokotow Gorny Mokotow,Warszawa,2.0,11849.0,52.1926848,21.0107885,408000.0,2.0,37.5,1952.0
823,Mokotow Dolny Mokotow Sukowicka,Warszawa,8.0,15167.0,52.2055496,21.0324754,990000.0,2.0,50.5,2008.0
824,Ursynow Gawota,Warszawa,2.0,15372.0,52.138111,21.0061695,560000.0,2.0,56.0,2009.0
825,Stare Miasto Wilczak Wilczak 16 A,Poznan,3.0,6250.0,52.4300916,16.9514725830321,410628.0,3.0,54.03,2020.0
826,BiezanowProkocim Agatowa,Krakow,3.0,21163.0,50.0225216,20.0481276,364409.0,3.0,51.02,2020.0
827,Mokotow,Warszawa,3.0,10849.0,52.1939874,21.0457809,2200000.0,4.0,102.0,2018.0
828,Wesoa ul Warszawska,Warszawa,0.0,6988.0,51.1744114,18.3950406,665000.0,3.0,66.0,2005.0
829,Mokotow,Warszawa,1.0,7891.0,52.1939874,21.0457809,1106270.0,3.0,100.57,2019.0
830,Nowe Miasto Staroeka Staroecka,Poznan,1.0,2706.0,52.3789805,16.9429243,290304.0,2.0,40.32,2021.0
831,Ochota,Warszawa,0.0,18070.0,52.212225,20.9726299,763805.0,2.0,54.95,2021.0
832,BiezanowProkocim Kozowek Na Kozowce,Krakow,0.0,21561.0,50.0205914,19.9789485,459000.0,4.0,53.1,1977.0
833,rodmiecie rodmiecie Poudniowe ul Hoza,Warszawa,3.0,13005.0,52.2240739,21.004453,720000.0,2.0,45.82,1900.0
834,PragaPonoc ks Ignacego Kopotowskiego,Warszawa,10.0,8022.0,52.2489719,21.0283372,425000.0,2.0,36.1,1970.0
835,Stare Miasto Pistkowo os Bolesawa miaego,Poznan,0.0,1522.0,52.4006632,16.91973259178088,425000.0,3.0,63.0,1986.0
836,Wochy Okecie,Warszawa,3.0,14801.0,52.1696272,20.9752099,499000.0,2.0,45.0,1960.0
837,Mokotow ul Domaniewska 34B,Warszawa,1.0,9188.0,52.1839266,21.008725,799900.0,3.0,63.04,2022.0
838,Bielany Piaski Wadysawa Broniewskiego,Warszawa,6.0,15631.0,52.2708306,20.94967475789464,445000.0,3.0,51.0,1972.0
839,PragaPonoc ul Szwedzka,Warszawa,5.0,11911.0,52.2634539,21.0453302,783832.38,3.0,61.17,2022.0
840,Debniki Podhalanska,Krakow,0.0,18389.0,50.0217426,19.9173734,820000.0,4.0,81.0,2010.0
841,Rembertow ul Chemzynska,Warszawa,4.0,11399.0,52.2459641,21.133045,498846.0,4.0,70.26,2022.0
842,Prsdnik Czerwony ul Zenona Klemensiewicza,Krakow,1.0,26868.0,50.0814925,19.9500226,227430.0,1.0,15.34,2021.0
843,Wola Juliusza Konstantego Ordona,Warszawa,0.0,10124.0,52.2143854,20.9478636,440000.0,2.0,53.0,1953.0
844,rodmiecie,Warszawa,0.0,13120.0,52.2328098,21.019067,872734.0,3.0,76.82,2021.0
845,Podgorze Seweryna Goszczynskiego,Krakow,3.0,22824.0,50.0372338,19.9917518,466362.0,2.0,48.83,2022.0
846,Stare Miasto Garbary,Poznan,4.0,3595.0,52.4035144,16.9330211,674360.0,3.0,66.67,2020.0
847,Swoszowice ul Borkowska,Krakow,1.0,20545.0,50.0033424,19.9040614,360000.0,1.0,33.27,2005.0
848,Bronowice Bronowice Mae Na Bonie,Krakow,4.0,24330.0,50.0796284,19.8801923,437000.0,3.0,53.0,1982.0
849,Jezyce Wola ul Janusza Meissnera,Poznan,6.0,349.0,52.4181388,16.8637337,351146.7,2.0,38.63,2022.0
850,Stare Miasto Duga,Krakow,0.0,22988.0,50.2658017,19.785956,999999.0,3.0,100.0,1918.0
851,Grzegorzki,Krakow,3.0,25166.0,50.06497215,19.968825516425383,899000.0,3.0,75.45,2008.0
852,Targowek,Warszawa,2.0,13285.0,52.2751918,21.0580854,419000.0,2.0,46.0,1975.0
853,Zoliborz,Warszawa,10.0,14921.0,52.2675944,20.9796975,1880000.0,4.0,101.5,2012.0
854,Jezyce,Poznan,2.0,2344.0,52.413045,16.9022122,299586.0,2.0,44.76,2021.0
855,Podgorze Paszow,Krakow,1.0,25526.0,50.0345327,19.9754459,495000.0,2.0,51.5,2010.0
856,Wilanow Syta,Warszawa,2.0,11694.0,52.1618721,21.1150151,811500.0,4.0,91.1,2021.0
857,Biaoeka Kobiaka ul Zeglugi Wilanej,Warszawa,0.0,8131.0,52.2319581,21.0067249,388000.0,2.0,50.4,2013.0
858,Bemowo,Warszawa,3.0,12251.0,52.2389738,20.9132881,629000.0,4.0,72.6,1985.0
859,Debniki Ruczaj prof Wadysawa Konopczynskiego,Krakow,3.0,29744.0,50.0153264,19.8951891,575820.0,3.0,63.98,2021.0
860,Stare Miasto,Krakow,3.0,19664.0,50.0590398,19.93716829792899,1350000.0,4.0,140.0,1900.0
861,PragaPonoc,Warszawa,1.0,9505.0,52.2648843,21.0273442,1000000.0,3.0,62.5,2020.0
862,Nowe Miasto Malta abpa Walentego Dymka,Poznan,0.0,4848.0,52.3938613,16.9910647,378724.0,3.0,51.88,2020.0
863,Mokotow Suzewiec,Warszawa,3.0,10907.0,52.17091075,21.015612588801844,950000.0,3.0,85.0,2009.0
864,Podgorze,Krakow,6.0,26472.0,50.0430999,19.9529614,653076.0,3.0,74.98,2021.0
865,PragaPoudnie Gocaw,Warszawa,5.0,10014.0,52.2286331,21.1065722,625260.0,3.0,59.32,2022.0
866,Podgorze ul Koszykarska,Krakow,3.0,18850.0,50.0498929,19.9906026,547319.0,2.0,54.19,2021.0
867,agiewnikiBorek Faecki Borek Faecki Tokarska,Krakow,0.0,27588.0,50.021563,19.9281184,249000.0,1.0,29.0,1950.0
868,Bemowo,Warszawa,1.0,17075.0,52.2389738,20.9132881,600000.0,2.0,53.0,2000.0
869,PragaPoudnie Gocaw,Warszawa,8.0,10585.0,52.2286331,21.1065722,603200.0,2.0,54.96,2021.0
870,Krowodrza,Krakow,4.0,21837.0,50.07087985,19.91656311814478,360000.0,2.0,34.0,2016.0
871,Nowe Miasto Malta ul Katowicka,Poznan,6.0,5889.0,52.3973449,16.9619394,333125.0,2.0,32.5,2022.0
872,Stare Miasto w Tomasza,Krakow,3.0,30303.0,50.062474300000005,19.940753678621007,799000.0,2.0,45.25,2016.0
873,Debniki Kobierzynska,Krakow,0.0,18751.0,50.0264036,19.9118498,429000.0,2.0,39.04,2021.0
874,PragaPoudnie Grochow,Warszawa,3.0,13535.0,52.2497745,21.1068857,768000.0,3.0,63.1,2011.0
875,Warszawa mazowieckie,Warszawa,6.0,13006.0,52.2702173,20.9546886,760000.0,4.0,63.41,1972.0
876,Bemowo ul Obroncow Tobruku,Warszawa,2.0,10443.0,52.257718100000005,20.930533384312227,599000.0,2.0,50.0,2005.0
877,BiezanowProkocim Gornikow,Krakow,1.0,27403.0,50.021319,19.9953253,659000.0,4.0,76.8,2014.0
878,Stare Miasto Kazimierz Elizy Orzeszkowej,Krakow,4.0,29085.0,50.0504781,19.93801875590692,1230000.0,5.0,158.0,1910.0
879,Debniki Obozowa,Krakow,3.0,24614.0,50.0206194,19.9145455,366000.0,2.0,40.5,2020.0
880,Nowe Miasto Rataje,Poznan,1.0,849.0,52.3901295,16.9535909,294170.0,2.0,35.23,2022.0
881,Wola Muranow Mia,Warszawa,7.0,12326.0,52.2495409,20.9874255,667000.0,2.0,48.58,1970.0
882,rodmiecie Nowy wiat,Warszawa,2.0,11403.0,52.2319581,21.0067249,3246600.0,6.0,154.5,1879.0
883,Debniki Rydlowka,Krakow,1.0,21367.0,50.08780725,19.878046068078184,449000.0,2.0,43.9,2021.0
884,Mokotow ul Biaego Debu 1,Warszawa,0.0,7785.0,52.183924,21.042562,743300.0,2.0,52.35,2021.0
885,Nowe Miasto Staroeka,Poznan,1.0,3634.0,52.3664351,16.9440977,292000.0,3.0,36.5,2020.0
886,rodmiecie,Warszawa,2.0,17616.0,52.2328098,21.019067,599900.0,2.0,36.0,1946.0
887,Nowe Miasto Malta ul Katowicka,Poznan,5.0,4786.0,52.3973449,16.9619394,549912.5,4.0,75.85,2022.0
888,Wawer ul Celulozy,Warszawa,1.0,7048.0,52.1691506,21.1750432,520000.0,6.0,120.0,2021.0
889,Podgorze Bagrowa,Krakow,4.0,19319.0,50.0361989,20.000282,635000.0,2.0,47.0,2015.0
890,PragaPoudnie,Warszawa,3.0,10293.0,52.2373961,21.0712578,549000.0,3.0,65.0,1978.0
891,Wilanow Zawady,Warszawa,2.0,16703.0,52.16561,21.12323,812500.0,4.0,91.49,2021.0
892,Grzegorzki ul Grzegorzecka,Krakow,10.0,25810.0,50.0587885,19.9500605,405600.0,1.0,27.04,2020.0
893,Wola,Warszawa,2.0,16530.0,52.2362379,20.9547815,610800.0,2.0,64.0,2001.0
894,Ursus,Warszawa,1.0,12048.0,52.1960985,20.8828989,515000.0,3.0,66.21,2022.0
895,PragaPoudnie Gocawek Naddnieprzanska,Warszawa,2.0,16581.0,52.2347075,21.1343503,755000.0,3.0,81.29,2011.0
896,Jezyce ul w Wawrzynca,Poznan,2.0,6125.0,52.4201252,16.8956979,512240.0,3.0,67.4,2021.0
897,Grunwald Gorczyn Jakuba Krauthofera,Poznan,1.0,4887.0,52.386959,16.890867471542784,269900.0,1.0,35.51,2021.0
898,Biaoeka,Warszawa,0.0,6343.0,52.3196649,21.0211773,319000.0,1.0,30.0,2014.0
899,Podgorze ul Stanisawa Klimeckiego,Krakow,3.0,24806.0,50.0492242,19.9703793,749000.0,3.0,75.76,2021.0
900,Mistrzejowice,Krakow,0.0,24006.0,50.09742625,20.00960263225891,450540.0,2.0,50.06,2020.0
901,Mokotow Okecka,Warszawa,8.0,14413.0,52.1875815,21.0156361,495000.0,3.0,46.2,1967.0
902,Podgorze,Krakow,6.0,26284.0,50.0430999,19.9529614,449000.0,3.0,48.0,1970.0
903,Mokotow,Warszawa,1.0,10619.0,52.1939874,21.0457809,420000.0,1.0,34.0,2003.0
904,Krowodrza Radzikowskiego 56,Krakow,0.0,18877.0,50.08355245,19.906821708708843,207480.0,1.0,21.84,2020.0
905,Nowe Miasto Malta ul Katowicka,Poznan,6.0,5911.0,52.3973449,16.9619394,703147.5,4.0,85.23,2022.0
906,Wochy Fasolowa,Warszawa,3.0,16658.0,52.1988258,20.9102999,954400.0,3.0,119.3,1999.0
907,Nowa Huta,Krakow,7.0,26761.0,50.080618650000005,20.12933219800524,585000.0,3.0,66.0,2009.0
908,Zoliborz Rudzka,Warszawa,5.0,16237.0,52.2789445,20.9705271,529400.0,2.0,42.4,2021.0
909,PragaPoudnie,Warszawa,8.0,6738.0,52.2373961,21.0712578,530000.0,3.0,46.0,1980.0
910,Jezyce ul w Wawrzynca 11,Poznan,5.0,5043.0,52.4201252,16.8956979,296780.0,1.0,31.24,2022.0
911,Podgorze Duchackie Wola Duchacka Alfreda Dauna,Krakow,0.0,20506.0,50.01856165,19.97726987485825,445000.0,3.0,62.4,1986.0
912,Grunwald,Poznan,4.0,686.0,52.404212,16.882542,651000.0,4.0,86.85,2022.0
913,Stare Miasto Wilczak Wilczak 16 A,Poznan,2.0,6156.0,52.4300916,16.9514725830321,462693.0,3.0,60.09,2020.0
914,Stare Miasto Centrum Podgorze 11,Poznan,2.0,3948.0,52.4123221,16.9326957,1515971.0,4.0,127.93,2021.0
915,Ursynow,Warszawa,1.0,13331.0,52.141039,21.0323214,320000.0,1.0,18.0,1962.0
916,Nowe Miasto Rataje Milczanska Katowicka,Poznan,0.0,6150.0,52.3973449,16.9619394,465000.0,2.0,63.8,2001.0
917,Nowa Huta Czyzyny ul Sotysowska,Krakow,3.0,23440.0,50.0605887,20.0240353,355167.0,2.0,38.19,2021.0
918,Ochota Aleje Jerozolimskie,Warszawa,2.0,7172.0,52.2274779,20.9993834,555000.0,2.0,44.1,1970.0
919,Grzegorzki ul pk Francesco Nullo,Krakow,4.0,25684.0,50.0469432,19.997153435836697,790650.0,3.0,70.28,2022.0
920,Biaoeka Lewandow Leona Berensona,Warszawa,0.0,17599.0,52.3242644,21.0666627,535000.0,3.0,65.18,2013.0
921,Mokotow,Warszawa,4.0,16291.0,52.1939874,21.0457809,389000.0,1.0,30.0,1960.0
922,Stare Miasto Bracka,Krakow,1.0,28565.0,50.0605924,19.9363314,1525000.0,2.0,64.6,1911.0
923,Zwierzyniec Salwator Kasztelanska,Krakow,0.0,21553.0,50.0574103,19.9133138,898172.0,3.0,60.28,2021.0
924,Jezyce,Poznan,4.0,339.0,52.413045,16.9022122,520000.0,5.0,88.0,1960.0
925,Debniki Skotniki ul Aleksandra Zelwerowicza,Krakow,1.0,27794.0,50.0179578,19.8790929,695000.0,5.0,90.6,2022.0
926,Bemowo,Warszawa,3.0,16283.0,52.2389738,20.9132881,1150000.0,4.0,142.7,2000.0
927,Bronowice Eljasza Walerego Radzikowskiego,Krakow,3.0,21420.0,50.0894188,19.8836634,515000.0,2.0,54.38,2001.0
928,maopolskie,Krakow,3.0,24045.0,50.0619474,19.9368564,409000.0,2.0,44.21,2021.0
929,Podgorze ul Stanisawa Klimeckiego,Krakow,2.0,24915.0,50.0492242,19.9703793,539000.0,2.0,50.8,2021.0
930,Wilanow al Aleja Rzeczypospolitej,Warszawa,0.0,15464.0,52.1537994,21.0822817,980000.0,3.0,73.3,2012.0
931,Centrum,Warszawa,10.0,7149.0,52.2311577,21.0100632,339999.0,1.0,18.0,2021.0
932,Wola,Warszawa,1.0,11259.0,52.2362379,20.9547815,620000.0,2.0,44.2,2020.0
933,Mistrzejowice,Krakow,3.0,23750.0,50.09742625,20.00960263225891,435520.0,2.0,48.18,2020.0
934,Bronowice,Krakow,2.0,22285.0,50.0833247,19.869783648014888,469000.0,2.0,46.21,2017.0
935,rodmiecie,Warszawa,4.0,13266.0,52.2328098,21.019067,750000.0,2.0,50.0,1962.0
936,Krowodrza Krolewska,Krakow,1.0,28449.0,50.073512,19.9149277,550000.0,2.0,47.0,1980.0
937,rodmiecie Inflancka,Warszawa,9.0,16785.0,52.2562386,20.9961234,699000.0,3.0,59.0,1978.0
938,rodmiecie al 29 Listopada,Krakow,2.0,22359.0,49.9730627,19.8323374,404000.0,2.0,43.0,1930.0
939,Nowa Huta Czyzyny,Krakow,1.0,19438.0,50.0816349,20.016490706002102,439000.0,2.0,56.46,2021.0
940,Grunwald azarz ok City Park,Poznan,3.0,6189.0,52.24470645,16.846131430320185,1120662.0,4.0,139.0,2011.0
941,Bienczyce Na Lotnisku,Krakow,4.0,22205.0,50.0872939,20.016875087529087,260000.0,2.0,37.0,1980.0
942,Biaoeka,Warszawa,0.0,14468.0,52.3196649,21.0211773,500000.0,3.0,54.0,2012.0
943,Wilanow ul Janczarow,Warszawa,0.0,6654.0,52.2319581,21.0067249,2400000.0,4.0,204.5,2010.0
944,Wzgorza Krzesawickie ul Gustawa Morcinka,Krakow,0.0,28775.0,50.1047809,20.0362743,396792.0,3.0,55.11,2020.0
945,Podgorze,Krakow,1.0,22349.0,50.0430999,19.9529614,279000.0,2.0,37.81,1920.0
946,Ursynow,Warszawa,0.0,17878.0,52.141039,21.0323214,404000.0,1.0,34.0,2020.0
947,Zwierzyniec Wola Justowska,Krakow,2.0,29030.0,50.0650619,19.877649,635000.0,3.0,63.59,2000.0
948,Mokotow Gorny Mokotow Bukietowa,Warszawa,3.0,10488.0,52.1908609,21.0123427,570000.0,2.0,46.94,1963.0
949,Podgorze,Krakow,1.0,20714.0,50.0430999,19.9529614,700000.0,2.0,70.6,1936.0
950,Nowa Huta Czyzyny ul Galicyjska,Krakow,4.0,19234.0,50.0635614,20.0069208,349000.0,1.0,26.0,2020.0
951,Nowe Miasto Rataje,Poznan,0.0,1289.0,52.3901295,16.9535909,291217.0,2.0,35.23,2022.0
952,Bemowo,Warszawa,3.0,17365.0,52.2389738,20.9132881,639000.0,4.0,96.0,2000.0
953,Mokotow ul Komputerowa,Warszawa,1.0,15386.0,52.17674,20.9922232,1420000.0,3.0,84.5,2019.0
954,Nowa Huta,Krakow,3.0,22564.0,50.080618650000005,20.12933219800524,410000.0,2.0,48.0,1950.0
955,Wochy Stare Wochy Al Jerozolimskie,Warszawa,2.0,11679.0,52.22876935,21.00335620600161,1312500.0,5.0,125.0,2003.0
956,Bielany Marymont Ul Sowianska 23,Warszawa,0.0,13364.0,52.27575215,20.966036805175506,704013.0,2.0,49.93,2022.0
957,Nowa Huta Czyzyny,Krakow,1.0,19754.0,50.0816349,20.016490706002102,358000.0,1.0,34.0,2015.0
958,Ursynow,Warszawa,2.0,13276.0,52.141039,21.0323214,739000.0,4.0,70.0,1979.0
959,Krowodrza Bronowicka,Krakow,1.0,27015.0,50.081021,19.8917439,637215.0,2.0,55.41,2022.0
960,Zoliborz ul Dyminska,Warszawa,0.0,14406.0,52.2609387,20.9972316,460000.0,2.0,37.0,1968.0
961,PragaPoudnie Gocaw al J NowakaJezioranskiego,Warszawa,5.0,17331.0,52.229716,21.1062874,615200.0,3.0,60.9,2020.0
962,Zoliborz Sady Zoliborskie,Warszawa,4.0,13221.0,52.2584249,20.96754499706532,355000.0,1.0,27.0,1971.0
963,Nowe Miasto rodka,Poznan,1.0,2594.0,52.4006632,16.91973259178088,327625.0,2.0,45.44,2020.0
964,Jezyce ul w Wawrzynca 11,Poznan,2.0,3632.0,52.4201252,16.8956979,669376.7,4.0,91.57,2022.0
965,Mokotow,Warszawa,3.0,7607.0,52.1939874,21.0457809,2450000.0,4.0,155.0,2012.0
966,Podgorze Stare Podgorze Wielicka,Krakow,4.0,22313.0,50.0336609,19.9712973,480000.0,2.0,53.5,2014.0
967,Wola Siedmiogrodzka,Warszawa,1.0,10843.0,52.2316242,20.9722607,527460.0,1.0,35.4,2021.0
968,Wochy CH Reduta Blue City,Warszawa,1.0,9359.0,52.2319581,21.0067249,573000.0,3.0,61.05,2021.0
969,Grzegorzki ul Grzegorzecka,Krakow,9.0,28701.0,50.0587885,19.9500605,496650.0,1.0,33.11,2020.0
970,Krowodrza obzow al Kijowska,Krakow,7.0,25090.0,50.0684308,19.9137868,740000.0,2.0,53.0,2008.0
971,Nowe Miasto Malta Nowe Miasto Malta,Poznan,5.0,2440.0,52.40739345,16.979467067544743,343980.0,2.0,36.0,2022.0
972,Stare Miasto Trojpole PistkowskaTrojpole,Poznan,2.0,6092.0,52.4006632,16.91973259178088,1100000.0,6.0,136.47,2020.0
973,PragaPoudnie Miedzyborska,Warszawa,0.0,8624.0,52.2418402,21.0771306,398000.0,2.0,32.0,1950.0
974,Prsdnik Biay Prsdnicka,Krakow,10.0,26797.0,50.0882793,19.9389231,330000.0,2.0,36.33,1982.0
975,Nowa Huta Czyzyny ul Wonicow,Krakow,3.0,26084.0,50.0469432,19.997153435836697,568290.0,3.0,59.82,2022.0
976,rodmiecie pl Zamkowy,Warszawa,1.0,16879.0,52.24793695,21.01378910682335,770000.0,2.0,37.66,1959.0
977,Podgorze ks Ignacego Stoszki,Krakow,1.0,20919.0,50.0418446,19.9854776,599000.0,3.0,64.0,2007.0
978,PragaPoudnie,Warszawa,3.0,15245.0,52.2373961,21.0712578,299900.0,1.0,25.5,1975.0
979,rodmiecie,Warszawa,1.0,8006.0,52.2328098,21.019067,1150000.0,2.0,55.11,1976.0
980,rodmiecie Aleja 29 Listopada,Krakow,1.0,24134.0,51.728259,18.5076219,645792.0,3.0,67.27,2020.0
981,Grunwald azarz Gogowska,Poznan,1.0,2178.0,52.4016616,16.9100607,629000.0,3.0,62.0,1901.0
982,Nowa Huta Kazimierzowskie,Krakow,8.0,18863.0,50.0855752,20.022019422267554,434000.0,3.0,44.0,1980.0
983,Biaoeka,Warszawa,2.0,14210.0,52.3196649,21.0211773,429000.0,2.0,54.3,2001.0
984,Stare Miasto Pistkowo ul Teofila Mateckiego,Poznan,1.0,3810.0,52.4611954,16.8977153,432432.0,2.0,60.06,2022.0
985,Wola,Warszawa,1.0,10378.0,52.2362379,20.9547815,950000.0,4.0,84.0,2009.0
986,Bemowo ul gen Tadeusza Peczynskiego 14b,Warszawa,0.0,10548.0,52.2319581,21.0067249,729000.0,2.0,53.48,2018.0
987,Stare Miasto Wilna,Krakow,2.0,28879.0,50.0469432,19.997153435836697,2790000.0,8.0,181.0,1780.0
988,Wawer Marysin Wawerski ul Bluszczowa,Warszawa,5.0,17645.0,52.2391087,21.1343092,652912.0,4.0,75.92,2020.0
989,Nowe Miasto Rataje,Poznan,4.0,5441.0,52.3901295,16.9535909,602782.0,4.0,73.51,2021.0
990,Podgorze Duchackie Wola Duchacka ul Czarnogorska,Krakow,3.0,19444.0,50.0197183,19.9709187,485000.0,3.0,53.0,1970.0
991,Wola WOLSKA,Warszawa,3.0,14102.0,52.2338232,20.9663932,629000.0,2.0,43.2,2019.0
992,Wilda,Poznan,0.0,800.0,52.3897748,16.9174381,219000.0,1.0,20.0,1905.0
993,Ursynow,Warszawa,2.0,14296.0,52.141039,21.0323214,670000.0,2.0,56.4,2008.0
994,PragaPoudnie Grochow,Warszawa,3.0,12495.0,52.2497745,21.1068857,713865.0,3.0,59.91,2022.0
995,Wola Muranow,Warszawa,8.0,6880.0,52.24033315,20.987097142274752,792792.0,3.0,62.57,2021.0
996,rodmiecie Powile al 3 Maja,Warszawa,4.0,16422.0,52.2346393,21.0355145,1249000.0,4.0,80.6,1995.0
997,Nowe Miasto Malta ul Katowicka,Poznan,4.0,5841.0,52.3973449,16.9619394,358622.5,2.0,38.77,2022.0
998,Stare Miasto Winogrady Wilczak 20,Poznan,0.0,6026.0,52.430023250000005,16.95269067658415,400905.0,2.0,53.1,2020.0
999,Mokotow,Warszawa,0.0,17006.0,52.1939874,21.0457809,330000.0,1.0,31.0,1980.0
1000,rodmiecie Stanisawa Noakowskiego,Warszawa,3.0,9920.0,52.2213603,21.0101343,835000.0,3.0,62.0,1908.0
1001,Jezyce ul Kocielna,Poznan,5.0,2462.0,52.4006632,16.91973259178088,1120000.0,4.0,92.0,2017.0
1002,Wola,Warszawa,3.0,16702.0,52.2362379,20.9547815,648700.0,2.0,54.0,1970.0
1003,Mokotow Puawska,Warszawa,2.0,15122.0,52.1915757,21.0248957,475000.0,2.0,41.0,1960.0
1004,Wola Mynow,Warszawa,1.0,12325.0,52.2391698,20.9584688,449800.0,1.0,38.0,1960.0
1005,Wochy,Warszawa,2.0,16655.0,52.1861093,20.9484377,550000.0,2.0,40.0,1937.0
1006,Mistrzejowice ul Piasta Koodzieja,Krakow,4.0,23399.0,50.0986433,20.0132206,361050.0,2.0,41.5,2022.0
1007,Nowe Miasto Malta ul Katowicka,Poznan,0.0,4974.0,52.3973449,16.9619394,304695.0,2.0,32.94,2022.0
1008,Biaoeka Tarchomin,Warszawa,2.0,7965.0,52.32069265,20.970833868701,465000.0,2.0,53.0,2001.0
1009,Debniki Skotniki ul Aleksandra Zelwerowicza,Krakow,1.0,27793.0,50.0179578,19.8790929,710000.0,5.0,90.6,2022.0
1010,Debniki KlinyZacisze bpa A Maysiaka,Krakow,3.0,30044.0,49.9988318,19.8938784,483942.0,3.0,69.58,2020.0
1011,Stare Miasto Winogrady,Poznan,4.0,4793.0,52.4348647,16.9383531,587936.0,3.0,77.36,2020.0
1012,Bielany,Warszawa,1.0,11680.0,52.2776126,20.9472054,455000.0,2.0,38.0,1970.0
1013,Nowa Huta,Krakow,2.0,24493.0,50.080618650000005,20.12933219800524,265000.0,2.0,32.0,1960.0
1014,Nowe Miasto Malta,Poznan,5.0,152.0,52.40739345,16.979467067544743,340900.0,2.0,38.96,2021.0
1015,Wola al Solidarnoci,Warszawa,6.0,16934.0,52.2412462,20.9927213,499010.0,1.0,35.9,2020.0
1016,Grunwald wit Brzask Mgielna Szronowa,Poznan,0.0,980.0,52.4084719,16.8782549,399000.0,3.0,65.9,1980.0
1017,Grunwald,Poznan,4.0,2691.0,52.404212,16.882542,420000.0,2.0,59.0,1965.0
1018,Bielany ul Przy Agorze,Warszawa,3.0,13058.0,52.2912362,20.9363057,549000.0,2.0,39.0,2010.0
1019,Ursus,Warszawa,3.0,7499.0,52.1960985,20.8828989,460000.0,3.0,50.0,1968.0
1020,rodmiecie,Warszawa,3.0,14946.0,52.2328098,21.019067,634000.0,2.0,42.3,1952.0
1021,Biaoeka,Warszawa,0.0,10007.0,52.3196649,21.0211773,350000.0,2.0,44.0,2010.0
1022,Stare Miasto pl Juliusza Kossaka 5,Krakow,5.0,22429.0,50.056192,19.9284059,629481.0,1.0,39.59,2020.0
1023,Wochy,Warszawa,4.0,10759.0,52.1861093,20.9484377,910000.0,3.0,71.14,2017.0
1024,Prsdnik Biay,Krakow,5.0,27569.0,50.1035684,19.9536031063012,460103.0,2.0,44.6,2020.0
1025,Jezyce,Poznan,3.0,2340.0,52.413045,16.9022122,475000.0,2.0,53.9,1960.0
1026,Krowodrza obzow Nawojki,Krakow,2.0,22195.0,50.0686102,19.912086,740000.0,3.0,63.0,1976.0
1027,Wola Odolany,Warszawa,8.0,12223.0,52.2143854,20.9478636,834000.0,4.0,66.72,2020.0
1028,Stare Miasto Pistkowo,Poznan,10.0,2884.0,52.4006632,16.91973259178088,358000.0,2.0,48.8,1978.0
1029,Mokotow Dolny Mokotow,Warszawa,3.0,7887.0,52.1964999,21.0463338,389000.0,1.0,28.21,1955.0
1030,Wola Juliana Konstantego Ordona,Warszawa,1.0,12448.0,52.2247928,20.9525803,534543.0,2.0,46.78,2021.0
1031,Jezyce,Poznan,1.0,1620.0,52.413045,16.9022122,299000.0,1.0,32.0,2020.0
1032,rodmiecie Zurawia,Warszawa,1.0,14485.0,52.2319581,21.0067249,760000.0,3.0,53.0,75.0
1033,Stare Miasto Rakowicka,Krakow,0.0,24447.0,50.0716873,19.9551456,986000.0,3.0,50.5,1920.0
1034,Zoliborz,Warszawa,4.0,9001.0,52.2675944,20.9796975,810000.0,3.0,80.0,1994.0
1035,Zoliborz,Warszawa,1.0,15975.0,52.2675944,20.9796975,779000.0,4.0,65.0,1960.0
1036,Biaoeka Leona Berensona,Warszawa,2.0,10429.0,52.3246245,21.0547602,328700.0,2.0,38.0,2020.0
1037,Ochota Stara Ochota Czestochowska,Warszawa,2.0,17850.0,52.2150882,20.9773835,768000.0,2.0,48.0,1936.0
1038,Stare Miasto Kazimierz,Krakow,3.0,25573.0,50.051855,19.9449466,770000.0,2.0,47.26,1900.0
